SALE TYPE,SOLD DATE,PROPERTY TYPE,ADDRESS,CITY,STATE OR PROVINCE,ZIP OR POSTAL CODE,PRICE,BEDS,BATHS,LOCATION,SQUARE FEET,LOT SIZE,YEAR BUILT,DAYS ON MARKET,$/SQUARE FEET,HOA/MONTH,STATUS,NEXT OPEN HOUSE START TIME,NEXT OPEN HOUSE END TIME,URL (SEE https://www.redfin.com/buy-a-home/comparative-market-analysis FOR INFO ON PRICING),SOURCE,MLS#,FAVORITE,INTERESTED,LATITUDE,LONGITUDE
PAST SALE,December-16-2021,Condo/Co-op,255 Winter St #111,Waltham,MA,2451,605000,2,2.5,Waltham,1314,,2009,,460,502,Sold,,,https://www.redfin.com/MA/Waltham/255-Winter-St-02451/unit-111/home/39584757,MLS PIN,72914176,N,Y,42.3990121,-71.2529845
PAST SALE,July-9-2021,Townhouse,47 Alder St #25,Waltham,MA,2453,560000,2,1.5,Waltham,1228,,2004,,456,390,Sold,,,https://www.redfin.com/MA/Waltham/47-Alder-St-02453/unit-25/home/11822522,MLS PIN,72840471,N,Y,42.3665772,-71.2353152
PAST SALE,June-25-2019,Condo/Co-op,81 Ash St #1,Waltham,MA,2453,470000,2,1,Waltham,1103,,1900,,426,268,Sold,,,https://www.redfin.com/MA/Waltham/81-Ash-St-02453/unit-1/home/40185488,MLS PIN,72501987,N,Y,42.3659035,-71.2394408
PAST SALE,April-27-2021,Single Family Residential,45 Mokema Ave,Waltham,MA,2451,480000,2,1,Waltham,954,4948,1950,,503,,Sold,,,https://www.redfin.com/MA/Waltham/45-Mokema-Ave-02451/home/11802639,MLS PIN,72796088,N,Y,42.4043232,-71.247259
PAST SALE,June-30-2021,Townhouse,136 Clark St #2,Waltham,MA,2453,810000,3,2.5,Waltham,2300,,2019,,352,200,Sold,,,https://www.redfin.com/MA/Waltham/136-Clark-St-02453/unit-2/home/174882828,MLS PIN,72834272,N,Y,42.3738982,-71.2216405
PAST SALE,November-22-2022,Condo/Co-op,28 Robbins St #4,Waltham,MA,2453,460000,2,1,Waltham,914,,1900,,503,262,Sold,,,https://www.redfin.com/MA/Waltham/28-Robbins-St-02453/unit-4/home/11821978,MLS PIN,73050370,N,Y,42.3652616,-71.2423748
PAST SALE,June-15-2022,Condo/Co-op,87 Ash St Unit 2-2,Waltham,MA,2453,555000,2,1,Waltham,955,,1900,,581,227,Sold,,,https://www.redfin.com/MA/Waltham/87-Ash-St-02453/unit-2-2/home/28675702,MLS PIN,72972163,N,Y,42.3658983,-71.2391994
PAST SALE,May-24-2019,Single Family Residential,14 Albert St,Waltham,MA,2453,580000,3,1,Waltham,1830,6000,1955,,317,,Sold,,,https://www.redfin.com/MA/Waltham/14-Albert-St-02453/home/11818715,MLS PIN,72481480,N,Y,42.3599522,-71.2645641
PAST SALE,June-30-2021,Townhouse,40 Myrtle St #2,Waltham,MA,2453,539000,2,1.5,Waltham,1156,,2002,,466,390,Sold,,,https://www.redfin.com/MA/Waltham/40-Myrtle-St-02453/unit-2/home/11822132,MLS PIN,72835682,N,Y,42.3661391,-71.2352704
PAST SALE,February-28-2022,Single Family Residential,50 Leonard St,Waltham,MA,2451,925000,5,2,Waltham,2253,6534,1910,,411,,Sold,,,https://www.redfin.com/MA/Waltham/50-Leonard-St-02451/home/11821048,MLS PIN,72937003,N,Y,42.3835676,-71.245646
PAST SALE,November-5-2020,Single Family Residential,57 Tudor St,Waltham,MA,2451,650000,3,2,Waltham,1500,9017,1950,,433,,Sold,,,https://www.redfin.com/MA/Waltham/57-Tudor-St-02451/home/11799274,MLS PIN,72734884,N,Y,42.4142857,-71.2475839
PAST SALE,July-31-2019,Condo/Co-op,30 Jacqueline Rd Unit F,Waltham,MA,2452,380000,2,1,Waltham,780,,1979,,487,364,Sold,,,https://www.redfin.com/MA/Waltham/30-Jacqueline-Rd-02452/unit-F/home/11800989,MLS PIN,72508428,N,Y,42.4073393,-71.2330587
PAST SALE,May-13-2022,Townhouse,42 Lexington St #1,Waltham,MA,2452,512500,2,1.5,Waltham,1072,,1970,,478,195,Sold,,,https://www.redfin.com/MA/Waltham/42-Lexington-St-02452/unit-1/home/52324474,MLS PIN,72964602,N,Y,42.3778049,-71.2358862
PAST SALE,May-14-2019,Townhouse,47 Alder St #21,Waltham,MA,2453,509000,2,1.5,Waltham,1248,,2005,,408,390,Sold,,,https://www.redfin.com/MA/Waltham/47-Alder-St-02453/unit-21/home/11822952,MLS PIN,72475423,N,Y,42.3665772,-71.2353152
PAST SALE,September-4-2018,Townhouse,30 Russell St #3,Waltham,MA,2453,595000,3,2,Waltham,1589,,2003,,374,200,Sold,,,https://www.redfin.com/MA/Waltham/30-Russell-St-02453/unit-3/home/11822057,MLS PIN,72365293,N,Y,42.3752613,-71.2433144
PAST SALE,June-21-2022,Townhouse,1005 Trapelo Rd #7,Waltham,MA,2452,625000,3,2.5,Waltham,1379,,2001,,453,307,Sold,,,https://www.redfin.com/MA/Waltham/1005-Trapelo-Rd-02452/unit-7/home/11821828,MLS PIN,72975917,N,Y,42.4109766,-71.232377
PAST SALE,January-11-2022,Condo/Co-op,19 Gorham St #2,Waltham,MA,2453,370000,1,1,Waltham,811,,1870,,456,217,Sold,,,https://www.redfin.com/MA/Waltham/19-Gorham-St-02453/unit-2/home/40262879,MLS PIN,72915754,N,Y,42.3698611,-71.231498
PAST SALE,June-11-2021,Single Family Residential,62 Beaver St,Waltham,MA,2453,747000,3,2,Waltham,2117,8786,1984,,353,,Sold,,,https://www.redfin.com/MA/Waltham/62-Beaver-St-02453/home/11810024,MLS PIN,72811163,N,Y,42.3817633,-71.205631
PAST SALE,June-29-2021,Condo/Co-op,41 Walnut St #21,Waltham,MA,2453,420000,2,1,Waltham,812,,1970,,517,378,Sold,,,https://www.redfin.com/MA/Waltham/41-Walnut-St-02453/unit-21/home/12301735,MLS PIN,72838014,N,Y,42.3695248,-71.2387392
PAST SALE,March-11-2022,Condo/Co-op,58 Jacqueline Rd #8,Waltham,MA,2451,425000,2,1,Waltham,910,,1961,,467,442,Sold,,,https://www.redfin.com/MA/Waltham/58-Jacqueline-Rd-02452/unit-8/home/11801412,MLS PIN,72937358,N,Y,42.406617,-71.2302884
PAST SALE,November-14-2018,Single Family Residential,31 Hatherly Rd,Waltham,MA,2452,571100,3,1,Pigeon Hill,1054,7580,1952,,542,,Sold,,,https://www.redfin.com/MA/Waltham/31-Hatherly-Rd-02452/home/11805151,MLS PIN,72404919,N,Y,42.398443,-71.218208
PAST SALE,June-11-2020,Single Family Residential,86 Indian Rd,Waltham,MA,2451,450000,3,1,Waltham,1420,3223,1910,,317,,Sold,,,https://www.redfin.com/MA/Waltham/86-Indian-Rd-02451/home/11803065,MLS PIN,72652241,N,Y,42.4036766,-71.2376987
PAST SALE,September-21-2018,Townhouse,26 Auburn St #2,Waltham,MA,2453,565000,2,2.5,Waltham,1600,,2006,,353,111,Sold,,,https://www.redfin.com/MA/Waltham/26-Auburn-St-02453/unit-2/home/12430694,MLS PIN,72364092,N,Y,42.3734403,-71.2507632
PAST SALE,October-16-2020,Single Family Residential,25 Marlborough Rd,Waltham,MA,2452,660000,3,1,Waltham,1522,3920,1920,,434,,Sold,,,https://www.redfin.com/MA/Waltham/25-Marlborough-Rd-02452/home/11805957,MLS PIN,72708409,N,Y,42.3943439,-71.2028255
PAST SALE,May-6-2020,Single Family Residential,34 Crafts St,Waltham,MA,2453,853000,4,2.5,Waltham,2504,5489,1900,,341,,Sold,,,https://www.redfin.com/MA/Waltham/34-Crafts-St-02453/home/11821679,MLS PIN,72627648,N,Y,42.3617095,-71.2347757
PAST SALE,November-14-2018,Condo/Co-op,87 Clocktower Dr #205,Waltham,MA,2452,665000,2,2,Waltham,1705,,2006,,390,598,Sold,,,https://www.redfin.com/MA/Waltham/87-Clocktower-Dr-02452/unit-205/home/12430576,MLS PIN,72407709,N,Y,42.4095722,-71.224218
PAST SALE,November-8-2021,Condo/Co-op,38 Nathan Rd #4,Waltham,MA,2451,377000,1,1,Waltham,655,,1930,,576,125,Sold,,,https://www.redfin.com/MA/Waltham/38-Nathan-Rd-02453/unit-4/home/18960325,MLS PIN,72898486,N,Y,42.3750524,-71.2551311
PAST SALE,August-16-2018,Condo/Co-op,107 Clocktower Dr #309,Waltham,MA,2452,670000,2,2,Waltham,1705,,2006,,393,598,Sold,,,https://www.redfin.com/MA/Waltham/107-Clocktower-Dr-02452/unit-309/home/18967016,MLS PIN,72335584,N,Y,42.4087608,-71.223817
PAST SALE,April-8-2020,Townhouse,21 Hall St #1,Waltham,MA,2453,764000,3,2.5,Waltham,2208,,2015,,346,200,Sold,,,https://www.redfin.com/MA/Waltham/21-Hall-St-02453/unit-1/home/56798136,MLS PIN,72615738,N,Y,42.3704892,-71.2349674
PAST SALE,January-22-2021,Condo/Co-op,10 Washington Ave #1,Waltham,MA,2453,452000,2,1,Waltham,934,,1960,,484,200,Sold,,,https://www.redfin.com/MA/Waltham/10-Washington-Ave-02453/unit-1/home/77521940,MLS PIN,72763334,N,Y,42.3630949,-71.2384651
PAST SALE,November-23-2021,Single Family Residential,41 Marivista Ave,Waltham,MA,2451,610000,3,2,Waltham,1840,2522,1973,,332,,Sold,,,https://www.redfin.com/MA/Waltham/41-Marivista-Ave-02451/home/11802947,MLS PIN,72904869,N,Y,42.401572,-71.2403914
PAST SALE,May-9-2019,Single Family Residential,17 Charles Street Ave,Waltham,MA,2453,764900,3,2.5,Waltham,2300,4550,2017,,333,,Sold,,,https://www.redfin.com/MA/Waltham/17-Charles-Street-Ave-02453/home/11812651,MLS PIN,72460883,N,Y,42.3739239,-71.2488256
PAST SALE,February-26-2020,Townhouse,28 Robbins St #3,Waltham,MA,2453,515000,3,2,Waltham,1500,,1900,,343,281,Sold,,,https://www.redfin.com/MA/Waltham/28-Robbins-St-02453/unit-3/home/11822101,MLS PIN,72608165,N,Y,42.3652616,-71.2423748
PAST SALE,June-30-2021,Condo/Co-op,31 Pond St #14,Waltham,MA,2451,300000,1,1,Waltham,567,,1981,,529,264,Sold,,,https://www.redfin.com/MA/Waltham/31-Pond-St-02451/unit-14/home/11808973,MLS PIN,72829972,N,Y,42.3798655,-71.2375182
PAST SALE,November-16-2018,Single Family Residential,121 Marivista Ave,Waltham,MA,2451,649900,3,2.5,Waltham,1872,3000,2004,,347,,Sold,,,https://www.redfin.com/MA/Waltham/121-Marivista-Ave-02451/home/11822539,MLS PIN,72393725,N,Y,42.3996311,-71.2429397
PAST SALE,February-25-2019,Townhouse,218 South St #3,Waltham,MA,2453,570000,2,2.5,Waltham,1440,,2004,,396,375,Sold,,,https://www.redfin.com/MA/Waltham/218-South-St-02453/unit-3/home/11822544,MLS PIN,72427419,N,Y,42.3684135,-71.2508909
PAST SALE,September-3-2020,Townhouse,9 Russell St #1,Waltham,MA,2453,460000,2,1.5,Waltham,982,,2004,,468,125,Sold,,,https://www.redfin.com/MA/Waltham/9-Russell-St-02453/unit-1/home/11822533,MLS PIN,72688092,N,Y,42.3755245,-71.2423514
PAST SALE,November-21-2019,Single Family Residential,30 Nutting Rd,Waltham,MA,2451,690000,4,2.5,Waltham,3269,8189,1950,,211,,Sold,,,https://www.redfin.com/MA/Waltham/30-Nutting-Rd-02451/home/11803156,MLS PIN,72574304,N,Y,42.4011109,-71.2352862
PAST SALE,February-3-2020,Townhouse,21 Hall St #2,Waltham,MA,2453,749900,3,2.5,Waltham,2208,,2015,,340,200,Sold,,,https://www.redfin.com/MA/Waltham/21-Hall-St-02453/unit-2/home/61702695,MLS PIN,72599810,N,Y,42.3704892,-71.2349674
PAST SALE,December-11-2019,Townhouse,70 Pond St #2,Waltham,MA,2451,599900,2,3,Waltham,2268,,2003,,265,200,Sold,,,https://www.redfin.com/MA/Waltham/70-Pond-St-02451/unit-2/home/11822347,MLS PIN,72586324,N,Y,42.3793253,-71.2391931
PAST SALE,July-8-2022,Townhouse,55 Ash St #23,Waltham,MA,2453,525000,2,2,Waltham,1033,,1904,,508,232,Sold,,,https://www.redfin.com/MA/Waltham/55-Ash-St-02453/unit-23/home/11822732,MLS PIN,72984866,N,Y,42.3661412,-71.2406752
PAST SALE,,Condo/Co-op,34 Winter St Unit B2,Waltham,MA,2451,660000,3,2.5,,3027,,1987,,218,,,,,https://www.redfin.com/MA/Waltham/34-Winter-St-02451/unit-B2/home/11804387,,,N,Y,42.394154,-71.2456165
PAST SALE,August-16-2022,Condo/Co-op,36 Washington Ave #4,Waltham,MA,2453,557000,2,1,Waltham,1602,,1890,,348,175,Sold,,,https://www.redfin.com/MA/Waltham/36-Washington-Ave-02453/unit-4/home/40324224,MLS PIN,73003079,N,Y,42.3628743,-71.2372382
PAST SALE,May-29-2020,Single Family Residential,752 Beaver St,Waltham,MA,2452,530000,4,1.5,Waltham,2092,12458,1950,,253,,Sold,,,https://www.redfin.com/MA/Waltham/752-Beaver-St-02452/home/11806834,MLS PIN,72591824,N,Y,42.3858147,-71.2348221
PAST SALE,November-19-2018,Condo/Co-op,29 Spruce St #24,Waltham,MA,2453,545000,2,1.5,Waltham,1129,,2009,,483,370,Sold,,,https://www.redfin.com/MA/Waltham/29-Spruce-St-02453/unit-24/home/21495359,MLS PIN,72394353,N,Y,42.3703932,-71.2383001
PAST SALE,January-4-2022,Condo/Co-op,63 Ash St #2,Waltham,MA,2453,365000,1,1,Waltham,616,,1900,,593,188,Sold,,,https://www.redfin.com/MA/Waltham/63-Ash-St-02453/unit-2/home/18960302,MLS PIN,72904845,N,Y,42.3661025,-71.2402954
PAST SALE,March-5-2021,Multi-Family (2-4 Unit),53-55 Derby St,Waltham,MA,2453,829000,6,3,Waltham,3500,5000,1910,,237,,Sold,,,https://www.redfin.com/MA/Waltham/53-Derby-St-02453/home/11819992,MLS PIN,72763360,N,Y,42.3607704,-71.2368238
PAST SALE,November-12-2020,Condo/Co-op,16 Winter St Unit 44A,Waltham,MA,2451,387500,2,2,Waltham,1092,,1981,,355,375,Sold,,,https://www.redfin.com/MA/Waltham/16-Winter-St-02451/unit-44A/home/11804430,MLS PIN,72713744,N,Y,42.3940196,-71.2445653
PAST SALE,November-30-2021,Single Family Residential,74 Boynton St,Waltham,MA,2451,625000,4,2,Waltham,1764,6325,1925,,354,,Sold,,,https://www.redfin.com/MA/Waltham/74-Boynton-St-02453/home/11821475,MLS PIN,72903063,N,Y,42.3717842,-71.253055
PAST SALE,June-9-2020,Single Family Residential,17 Humboldt St,Waltham,MA,2452,820000,3,3.5,Waltham,2448,3615,2008,,335,,Sold,,,https://www.redfin.com/MA/Waltham/17-Humboldt-St-02452/home/11805600,MLS PIN,72624116,N,Y,42.3973063,-71.2020969
PAST SALE,October-4-2021,Townhouse,9 Dix St #1,Waltham,MA,2451,565000,2,2.5,Waltham,1500,4792,2000,,377,150,Sold,,,https://www.redfin.com/MA/Waltham/9-Dix-St-02453/unit-1/home/11821706,MLS PIN,72866238,N,Y,42.3719454,-71.2204357
PAST SALE,December-8-2022,Single Family Residential,146 Trapelo Rd,Waltham,MA,2451,640000,4,1.5,Waltham,1690,3798,1920,,379,,Sold,,,https://www.redfin.com/MA/Waltham/146-Trapelo-Rd-02452/home/11806027,MLS PIN,73039690,N,Y,42.3927781,-71.2027447
PAST SALE,October-22-2018,Townhouse,79 Francis St #1,Waltham,MA,2451,549000,3,2.5,Waltham,1733,,1910,,317,250,Sold,,,https://www.redfin.com/MA/Waltham/79-Francis-St-02451/unit-1/home/40324213,MLS PIN,72379407,N,Y,42.3786922,-71.2454774
PAST SALE,April-30-2020,Townhouse,34 Winter St Unit B4,Waltham,MA,2451,645000,3,3.5,Waltham,3027,,1987,,213,400,Sold,,,https://www.redfin.com/MA/Waltham/34-Winter-St-02451/unit-B4/home/11804389,MLS PIN,72618428,N,Y,42.394154,-71.2456165
PAST SALE,September-28-2018,Single Family Residential,136 Chaffee Ave,Waltham,MA,2453,620000,3,2.5,Waltham,2094,6020,1945,,296,,Sold,,,https://www.redfin.com/MA/Waltham/136-Chaffee-Ave-02453/home/11814132,MLS PIN,72356317,N,Y,42.3780023,-71.2146979
PAST SALE,February-28-2019,Condo/Co-op,139 Robbins St #3,Waltham,MA,2453,475000,3,2,Waltham,2025,,1920,,235,200,Sold,,,https://www.redfin.com/MA/Waltham/139-Robbins-St-02453/unit-3/home/18960390,MLS PIN,72427466,N,Y,42.3638869,-71.237127
PAST SALE,August-22-2018,Single Family Residential,94 Sherbourne Pl,Waltham,MA,2451,804500,6,3.5,Reservoir Estates,3950,15582,1979,,204,,Sold,,,https://www.redfin.com/MA/Waltham/94-Sherbourne-Pl-02451/home/11798364,MLS PIN,72341174,N,Y,42.4228347,-71.2656816
PAST SALE,June-22-2023,Townhouse,11 Bellevue St #2,Waltham,MA,2453,665000,4,2.5,Waltham,2203,,1890,,302,86,Sold,,,https://www.redfin.com/MA/Waltham/11-Bellevue-St-02453/unit-2/home/40324215,MLS PIN,73097697,N,Y,42.369913,-71.2465596
PAST SALE,December-17-2020,Townhouse,98 Francis St #2,Waltham,MA,2451,532000,3,2,Waltham,1357,,2001,,392,,Sold,,,https://www.redfin.com/MA/Waltham/98-Francis-St-02451/unit-2/home/11821839,MLS PIN,72722748,N,Y,42.3798126,-71.2458363
PAST SALE,,Condo/Co-op,17 Parkers Ln #1,Waltham,MA,2453,465000,3,2,,1382,,1900,,336,,,,,https://www.redfin.com/MA/Waltham/17-Parkers-Ln-02453/unit-1/home/11822248,,,N,Y,42.3711268,-71.2218511
PAST SALE,,Condo/Co-op,47 Angleside Rd #1,Waltham,MA,2453,377500,2,1,,1165,,1980,,324,,,,,https://www.redfin.com/MA/Waltham/47-Angleside-Rd-02453/unit-1/home/11818833,,,N,Y,42.3589889,-71.2582144
PAST SALE,,Condo/Co-op,38 Eddy St #1,Waltham,MA,2453,550000,1,1,,958,,1920,,574,,,,,https://www.redfin.com/MA/Waltham/38-Eddy-St-02453/unit-1/home/12551651,,,N,Y,42.375706,-71.2538577
PAST SALE,June-3-2019,Multi-Family (2-4 Unit),66-68 Central St,Waltham,MA,2453,695000,4,2,Waltham,2298,12115,1880,,302,,Sold,,,https://www.redfin.com/MA/Waltham/66-Central-St-02453/home/181077604,MLS PIN,72466334,N,Y,42.3751831,-71.2318169
PAST SALE,,Condo/Co-op,330 Bishops Forest Dr,Waltham,MA,2452,740000,2,2,,2235,,1989,,331,,,,,https://www.redfin.com/MA/Waltham/330-Bishops-Forest-Dr-02452/home/11804850,,,N,Y,42.3983583,-71.22455
PAST SALE,,Condo/Co-op,136 Bishops Forest Dr #000136,Waltham,MA,2452,831000,2,2.5,,2913,,1995,,285,,,,,https://www.redfin.com/MA/Waltham/136-Bishops-Forest-Dr-02452/unit-000136/home/11804982,,,N,Y,42.3985798,-71.2291788
PAST SALE,,Condo/Co-op,215 Ash St #4,Waltham,MA,2453,455000,2,1,,835,,1900,,545,,,,,https://www.redfin.com/MA/Waltham/215-Ash-St-02453/unit-4/home/11823131,,,N,Y,42.3647152,-71.2330012
PAST SALE,October-5-2020,Condo/Co-op,243 Lake St #23,Waltham,MA,2451,250000,1,1,Lakeview,450,3000,1970,,556,295,Sold,,,https://www.redfin.com/MA/Waltham/243-Lake-St-02451/unit-23/home/11822962,MLS PIN,72726291,N,Y,42.4046487,-71.244863
PAST SALE,August-11-2022,Multi-Family (2-4 Unit),24-26 Taylor St,Waltham,MA,2453,845580,6,4.5,Waltham,3087,5001,1870,,274,,Sold,,,https://www.redfin.com/MA/Waltham/24-Taylor-St-02453/home/11817085,MLS PIN,73012087,N,Y,42.370136,-71.2359033
PAST SALE,,Condo/Co-op,14 Gardner St #2,Waltham,MA,2453,550000,4,2,,1599,,1900,,344,,,,,https://www.redfin.com/MA/Waltham/14-Gardner-St-02453/unit-2/home/18967014,,,N,Y,42.3702105,-71.2322743
PAST SALE,,Condo/Co-op,74 School St #1,Waltham,MA,2452,377500,1,1,,780,,1985,,484,,,,,https://www.redfin.com/MA/Waltham/74-School-St-02452/unit-1/home/11438190,,,N,Y,42.3777607,-71.2343064
PAST SALE,,Multi-Family (2-4 Unit),418 Main St,Waltham,MA,2452,701888,9,4,,3686,11761,1820,,190,,,,,https://www.redfin.com/MA/Waltham/418-Main-St-02452/home/11813417,,,N,Y,42.3773647,-71.2265415
PAST SALE,,Condo/Co-op,79 Bishops Forest Dr,Waltham,MA,2452,675000,2,3,,2424,,1988,,278,,,,,https://www.redfin.com/MA/Waltham/79-Bishops-Forest-Dr-02452/home/11820746,,,N,Y,42.3993482,-71.2302357
PAST SALE,,Condo/Co-op,36 Jacqueline Rd Unit F,Waltham,MA,2452,355000,2,1,,780,,1979,,455,,,,,https://www.redfin.com/MA/Waltham/36-Jacqueline-Rd-02452/unit-F/home/11801029,,,N,Y,42.4078276,-71.2329685
PAST SALE,September-10-2021,Townhouse,61 Gale St #1,Waltham,MA,2453,819900,3,2.5,Waltham,2400,,2021,,342,200,Sold,,,https://www.redfin.com/MA/Waltham/61-Gale-St-02453/unit-1/home/179768378,MLS PIN,72893353,N,Y,42.3738263,-71.2238699
PAST SALE,May-3-2022,Townhouse,36 Taylor St #2,Waltham,MA,2543,1350000,3,4,South Waltham,3000,,2021,,450,250,Sold,,,https://www.redfin.com/MA/Falmouth/36-TAYLOR-ST-02543/unit-2/home/178973614,MLS PIN,72964105,N,Y,42.370084,-71.235333
PAST SALE,,Condo/Co-op,111 Hammond St #3,Waltham,MA,2451,492000,2,1.5,,800,,2004,,615,,,,,https://www.redfin.com/MA/Waltham/111-Hammond-St-02451/unit-3/home/11822326,,,N,Y,42.3801888,-71.2464174
PAST SALE,July-16-2018,Single Family Residential,39 Braemore Rd,Waltham,MA,2453,975000,4,3,Waltham,3200,7400,2018,,305,,Sold,,,https://www.redfin.com/MA/Waltham/39-Braemore-Rd-02451/home/76478964,MLS PIN,72340243,N,Y,42.4005124,-71.2411138
PAST SALE,,Condo/Co-op,40 Bacon St #4,Waltham,MA,2451,459000,2,1.5,,832,,2001,,552,,,,,https://www.redfin.com/MA/Waltham/40-Bacon-St-02451/unit-4/home/11821873,,,N,Y,42.3777802,-71.2431021
PAST SALE,,Condo/Co-op,64 Cherry St #3,Waltham,MA,2453,369900,1,1,,755,,1920,,490,,,,,https://www.redfin.com/MA/Waltham/64-Cherry-St-02453/unit-3/home/11822591,,,N,Y,42.3672146,-71.239616
PAST SALE,,Condo/Co-op,97 Fiske St,Waltham,MA,2451,495000,3,1.5,,1680,,1997,,295,,,,,https://www.redfin.com/MA/Waltham/97-Fiske-St-02451/home/11821069,,,N,Y,42.3796634,-71.2433979
PAST SALE,June-27-2022,Condo/Co-op,73 Lionel Ave Unit A,Waltham,MA,2452,300000,1,1,Waltham,710,,1979,,423,320,Sold,,,https://www.redfin.com/MA/Waltham/73-Lionel-Ave-02452/unit-A/home/11803769,MLS PIN,72986285,N,Y,42.4056193,-71.2310491
PAST SALE,August-7-2018,Single Family Residential,166 Circle Dr,Waltham,MA,2452,586500,3,2,Waltham,2380,10824,1957,,246,,Sold,,,https://www.redfin.com/MA/Waltham/166-Circle-Dr-02452/home/11804045,MLS PIN,72350816,N,Y,42.4015204,-71.2155627
PAST SALE,June-11-2019,Condo/Co-op,64 Jacqueline Rd #12,Waltham,MA,2452,250000,1,1,Waltham,720,,1979,,347,365,Sold,,,https://www.redfin.com/MA/Waltham/64-Jacqueline-Rd-02452/unit-12/home/11820562,MLS PIN,72489605,N,Y,42.406794,-71.231397
PAST SALE,January-28-2022,Single Family Residential,99 Seminole Ave,Waltham,MA,2451,570000,3,2,Waltham,1296,4230,1965,,440,,Sold,,,https://www.redfin.com/MA/Waltham/99-Seminole-Ave-02451/home/11801877,MLS PIN,72933407,N,Y,42.4051854,-71.245774
PAST SALE,April-30-2021,Single Family Residential,101 Copeland St,Waltham,MA,2451,745000,4,2,Waltham,1908,10411,1964,,390,,Sold,,,https://www.redfin.com/MA/Waltham/101-Copeland-St-02451/home/11798962,MLS PIN,72788120,N,Y,42.416606,-71.2481407
PAST SALE,May-28-2020,Townhouse,8 Day St #2,Waltham,MA,2453,760000,3,3.5,Waltham,2400,5009,2020,,317,,Sold,,,https://www.redfin.com/MA/Waltham/8-Day-St-02453/unit-2/home/171378036,MLS PIN,72645584,N,Y,42.3677771,-71.2287122
PAST SALE,July-21-2022,Single Family Residential,52 Clematis Ave,Waltham,MA,2453,575000,4,2.5,Waltham,1584,7579,1920,,363,,Sold,,,https://www.redfin.com/MA/Waltham/52-Clematis-Ave-02453/home/11809844,MLS PIN,72981021,N,Y,42.383317,-71.2042851
PAST SALE,April-22-2019,Multi-Family (5+ Unit),78-80 Harvard St,Waltham,MA,2453,1400000,11,6,Waltham,4350,4950,1970,,322,,Sold,,,https://www.redfin.com/MA/Waltham/78-Harvard-St-02453/home/11812839,MLS PIN,72458239,N,Y,42.3735943,-71.2431696
PAST SALE,September-10-2020,Townhouse,14 Robbins St #2,Waltham,MA,2453,799000,3,3.5,Waltham,2300,,2020,,347,200,Sold,,,https://www.redfin.com/MA/Waltham/14-Robbins-St-02453/unit-2/home/172123842,MLS PIN,72676145,N,Y,42.3653358,-71.2428391
PAST SALE,November-19-2019,Townhouse,238 Bishops Forest Dr #238,Waltham,MA,2452,630000,2,3.5,Waltham,2420,,1989,,260,580,Sold,,,https://www.redfin.com/MA/Waltham/238-Bishops-Forest-Dr-02452/unit-238/home/77501011,MLS PIN,72559784,N,Y,42.4006853,-71.2280424
PAST SALE,May-21-2021,Condo/Co-op,19 Robbins St Unit 3-1,Waltham,MA,2453,447500,1,1,Waltham,729,,1930,,614,300,Sold,,,https://www.redfin.com/MA/Waltham/19-Robbins-St-02453/unit-3-1/home/18960330,MLS PIN,72814941,N,Y,42.3647463,-71.2428505
PAST SALE,April-27-2023,Single Family Residential,3 Tomlin St,Waltham,MA,2451,630000,3,1,Highlands,2558,12275,1920,,246,,Sold,,,https://www.redfin.com/MA/Waltham/3-Tomlin-St-02451/home/11808372,MLS PIN,73088025,N,Y,42.3856633,-71.2489332
PAST SALE,June-2-2020,Condo/Co-op,948 Main St #305,Waltham,MA,2451,420000,1,1,Waltham,761,,2012,,552,313,Sold,,,https://www.redfin.com/MA/Waltham/948-Main-St-02451/unit-305/home/92912168,MLS PIN,72656036,N,Y,42.3757015,-71.249435
PAST SALE,January-27-2022,Condo/Co-op,87 Clocktower Dr #2202,Waltham,MA,2452,655000,2,2,Waltham,1310,,2006,,500,496,Sold,,,https://www.redfin.com/MA/Waltham/87-Clocktower-Dr-02452/unit-2202/home/113230630,MLS PIN,72928488,N,Y,42.4095722,-71.224218
PAST SALE,October-11-2019,Single Family Residential,92 Potter Rd,Waltham,MA,2453,540000,3,2,Waltham,1407,1612,1883,,384,,Sold,,,https://www.redfin.com/MA/Waltham/92-Potter-Rd-02453/home/11814443,MLS PIN,72559842,N,Y,42.3745273,-71.2209926
PAST SALE,August-12-2022,Single Family Residential,29 Barbara Rd,Waltham,MA,2451,850000,3,2.5,Warrendale,1732,5750,1930,,491,,Sold,,,https://www.redfin.com/MA/Waltham/29-Barbara-Rd-02453/home/11815596,MLS PIN,72994828,N,Y,42.3759428,-71.2104536
PAST SALE,December-5-2022,Single Family Residential,62 Oakley Ln,Waltham,MA,2452,860000,4,2,Waltham,2668,12001,1954,,322,,Sold,,,https://www.redfin.com/MA/Waltham/62-Oakley-Ln-02452/home/11808895,MLS PIN,73059868,N,Y,42.3844398,-71.2330587
PAST SALE,August-14-2020,Single Family Residential,83 Barbara Rd,Waltham,MA,2453,800000,4,2.5,WARRENDALE,2434,6882,1938,,329,,Sold,,,https://www.redfin.com/MA/Waltham/83-Barbara-Rd-02453/home/11815100,MLS PIN,72695749,N,Y,42.3776769,-71.2094995
PAST SALE,November-14-2022,Condo/Co-op,23 Jacqueline Rd Unit D,Waltham,MA,2452,275000,2,1,Waltham,780,,1979,,353,370,Sold,,,https://www.redfin.com/MA/Waltham/23-Jacqueline-Rd-02452/unit-D/home/11800956,MLS PIN,73053091,N,Y,42.4071371,-71.2320816
PAST SALE,July-29-2022,Single Family Residential,28 Howard St,Waltham,MA,2451,740000,5,1.5,Waltham,2805,6125,1920,,264,,Sold,,,https://www.redfin.com/MA/Waltham/28-Howard-St-02451/home/11812246,MLS PIN,72994465,N,Y,42.3773058,-71.2450319
PAST SALE,July-15-2021,Multi-Family (5+ Unit),11 Hammond St,Waltham,MA,2451,2900000,19,10,Waltham,15926,12001,1838,,182,,Sold,,,https://www.redfin.com/MA/Waltham/11-Hammond-St-02451/home/11812290,MLS PIN,72808952,N,Y,42.3767224,-71.2465082
PAST SALE,November-16-2020,Single Family Residential,71 Stone Rd,Waltham,MA,2453,700000,3,3,Waltham,2000,5837,1947,,350,,Sold,,,https://www.redfin.com/MA/Waltham/71-Stone-Rd-02453/home/11815356,MLS PIN,72716735,N,Y,42.3762261,-71.2073482
PAST SALE,December-15-2020,Single Family Residential,82 Bowdoin Ave,Waltham,MA,2451,530000,3,1.5,North Waltham,1560,3441,1977,,340,,Sold,,,https://www.redfin.com/MA/Waltham/82-Bowdoin-Ave-02451/home/11802157,MLS PIN,72756969,N,Y,42.4028208,-71.24205
PAST SALE,October-21-2019,Townhouse,89 South St #2,Waltham,MA,2453,572000,2,1.5,Waltham,1500,,2005,,381,256,Sold,,,https://www.redfin.com/MA/Waltham/89-South-St-02453/unit-2/home/11823256,MLS PIN,72555935,N,Y,42.3729242,-71.2503682
PAST SALE,October-10-2018,Condo/Co-op,54 Lionel Ave Unit A,Waltham,MA,2452,320000,2,1,Waltham,760,,1979,,421,350,Sold,,,https://www.redfin.com/MA/Waltham/54-Lionel-Ave-02452/unit-A/home/11803137,MLS PIN,72388551,N,Y,42.4061271,-71.2315651
PAST SALE,June-21-2022,Condo/Co-op,31 Pond St #8,Waltham,MA,2451,299900,1,1,Waltham,540,,1981,,555,264,Sold,,,https://www.redfin.com/MA/Waltham/31-Pond-St-02451/unit-8/home/113075426,MLS PIN,72978031,N,Y,42.3798655,-71.2375182
PAST SALE,August-15-2022,Single Family Residential,22 Appleton St,Waltham,MA,2453,725000,4,2,Waltham,3046,8795,1900,,238,,Sold,,,https://www.redfin.com/MA/Waltham/22-Appleton-St-02453/home/11813224,MLS PIN,73017150,N,Y,42.3761325,-71.2315736
PAST SALE,October-18-2019,Condo/Co-op,73 Robbins St #2,Waltham,MA,2453,100000,0,1,Waltham,217,,1981,,461,140,Sold,,,https://www.redfin.com/MA/Waltham/73-Robbins-St-02453/unit-2/home/11819502,MLS PIN,72566832,N,Y,42.3644059,-71.240177
PAST SALE,October-31-2022,Single Family Residential,110 Lakeview Ave,Waltham,MA,2451,545000,2,1,Waltham,1176,3202,1920,,463,,Sold,,,https://www.redfin.com/MA/Waltham/110-Lakeview-Ave-02451/home/11801909,MLS PIN,73042405,N,Y,42.4050306,-71.24461
PAST SALE,October-21-2022,Multi-Family (2-4 Unit),57 Adams St,Waltham,MA,2453,2900000,8,8,Waltham,5600,7680,2022,,518,,Sold,,,https://www.redfin.com/MA/Waltham/57-Adams-St-02453/home/11817131,MLS PIN,73044339,N,Y,42.3693701,-71.2401302
PAST SALE,July-23-2018,Condo/Co-op,182 River St #182,Waltham,MA,2453,230000,1,1,Waltham,446,,1983,,516,275,Sold,,,https://www.redfin.com/MA/Waltham/182-River-St-02453/unit-182/home/108588292,MLS PIN,72336653,N,Y,42.370314,-71.223122
PAST SALE,April-1-2020,Townhouse,178 Bishops Forest Dr #178,Waltham,MA,2452,640000,2,3.5,Waltham,2287,,1994,,280,548,Sold,,,https://www.redfin.com/MA/Waltham/178-Bishops-Forest-Dr-02452/unit-178/home/77515988,MLS PIN,72611099,N,Y,42.4022968,-71.2264401
PAST SALE,,Condo/Co-op,180B River St #7,Waltham,MA,2453,192500,1,1,,504,,1983,,382,,,,,https://www.redfin.com/MA/Waltham/180B-River-St-02453/unit-7/home/11818074,,,N,Y,42.3706089,-71.2228721
PAST SALE,September-15-2020,Single Family Residential,33 Dexter St,Waltham,MA,2453,678000,3,1.5,Waltham,1766,3485,1910,,384,,Sold,,,https://www.redfin.com/MA/Waltham/33-Dexter-St-02453/home/11819957,MLS PIN,72700017,N,Y,42.3618912,-71.2376065
PAST SALE,October-27-2020,Single Family Residential,463 Lincoln St,Waltham,MA,2451,585000,4,2,Lakeview,1736,4835,1958,,337,,Sold,,,https://www.redfin.com/MA/Waltham/463-Lincoln-St-02451/home/11820637,MLS PIN,72728878,N,Y,42.4035578,-71.2483844
PAST SALE,July-15-2021,Condo/Co-op,32 Whitman Rd Unit 2-2,Waltham,MA,2453,370000,2,1,Waltham,726,,1982,,510,426,Sold,,,https://www.redfin.com/MA/Waltham/32-Whitman-Rd-02453/unit-2-2/home/11815486,MLS PIN,72830757,N,Y,42.3753201,-71.2083183
PAST SALE,July-16-2021,Single Family Residential,67 Bright St,Waltham,MA,2453,1120000,4,3.5,Waltham,2750,7662,1950,,407,,Sold,,,https://www.redfin.com/MA/Waltham/67-Bright-St-02453/home/11813677,MLS PIN,72822923,N,Y,42.3751193,-71.2231738
PAST SALE,July-23-2021,Single Family Residential,71 Longfellow Rd,Watertown,MA,2472,800000,3,1.5,Watertown,1375,5667,1940,,582,,Sold,,,https://www.redfin.com/MA/Watertown/71-Longfellow-Rd-02472/home/11693968,MLS PIN,72842313,N,Y,42.3760915,-71.2056774
PAST SALE,August-30-2021,Single Family Residential,44 Kendall Park,Waltham,MA,2451,730000,3,1.5,Waltham,1394,8712,1950,,524,,Sold,,,https://www.redfin.com/MA/Waltham/44-Kendall-Park-02451/home/11807942,MLS PIN,72870783,N,Y,42.3851272,-71.2432681
PAST SALE,August-30-2019,Single Family Residential,6 Nottingham,Waltham,MA,2452,775000,3,3.5,Waltham,2000,4020,2009,,388,,Sold,,,https://www.redfin.com/MA/Waltham/6-Nottingham-St-02452/home/11805567,MLS PIN,72535194,N,Y,42.3981942,-71.2019913
PAST SALE,February-27-2019,Single Family Residential,44 Gentlemans Way,Waltham,MA,2452,1025000,3,2,Storer Conservation/Robert Treat Paine Estate/Bentley,3222,23872,1985,,318,,Sold,,,https://www.redfin.com/MA/Waltham/44-Gentlemans-Way-02452/home/11809268,MLS PIN,72438928,N,Y,42.3850663,-71.2309471
PAST SALE,October-11-2022,Single Family Residential,16 Dobbins St,Waltham,MA,2451,1100000,4,2.5,Lincoln Heights,2264,7200,2002,,486,,Sold,,,https://www.redfin.com/MA/Waltham/16-Dobbins-St-02451/home/11802781,MLS PIN,73026498,N,Y,42.4012598,-71.2491152
PAST SALE,April-7-2022,Single Family Residential,69 Lura Ln,Waltham,MA,2451,901900,5,3,Waltham,2654,34595,1974,,340,,Sold,,,https://www.redfin.com/MA/Waltham/69-Lura-Ln-02451/home/11804492,MLS PIN,72954292,N,Y,42.3936995,-71.2489283
PAST SALE,October-31-2021,Multi-Family (2-4 Unit),19-21 Auburn St,Waltham,MA,2453,975000,7,3,Cedarwood,3252,5227,1910,,300,,Sold,,,https://www.redfin.com/MA/Waltham/19-Auburn-St-02453/home/11438133,MLS PIN,72894081,N,Y,42.3736657,-71.2512246
PAST SALE,August-28-2018,Multi-Family (2-4 Unit),267-269 Dale St,Waltham,MA,2451,740000,8,2,Prospectville,2966,8777,1883,,249,,Sold,,,https://www.redfin.com/MA/Waltham/267-Dale-St-02451/home/181077346,MLS PIN,72358919,N,Y,42.3860255,-71.2489243
PAST SALE,,Condo/Co-op,41 Casey Cir,Waltham,MA,2451,550000,2,2.5,,1440,,1983,,382,,,,,https://www.redfin.com/MA/Waltham/41-Casey-Cir-02451/home/11801612,,,N,Y,42.405571,-71.251152
PAST SALE,November-23-2021,Townhouse,270 Bishops Forest Dr #270,Waltham,MA,2452,945000,4,3.5,Waltham,3084,,1993,,306,794,Sold,,,https://www.redfin.com/MA/Waltham/270-Bishops-Forest-Dr-02452/home/11803607,MLS PIN,72892925,N,Y,42.3997535,-71.2288589
PAST SALE,April-15-2020,Townhouse,53 Bartlett Way #304,Waltham,MA,2452,661000,2,2,Waltham,1585,,2006,,417,598,Sold,,,https://www.redfin.com/MA/Waltham/53-Bartlett-Way-02452/unit-304/home/12430575,MLS PIN,72618046,N,Y,42.4092234,-71.2250069
PAST SALE,June-12-2019,Multi-Family (2-4 Unit),11 Massasoit Ct,Waltham,MA,2453,530000,4,2,Waltham,2208,5000,1880,,240,,Sold,,,https://www.redfin.com/MA/Waltham/11-Massasoit-Ct-02453/home/11813619,MLS PIN,72474398,N,Y,42.3759462,-71.2258655
PAST SALE,September-10-2021,Townhouse,325 Bacon St #7,Waltham,MA,2451,809000,2,2.5,Piety Corner,2867,60000,2013,,282,380,Sold,,,https://www.redfin.com/MA/Waltham/325-Bacon-St-02451/unit-7/home/40392607,MLS PIN,72837991,N,Y,42.3874607,-71.2396272
PAST SALE,June-17-2022,Multi-Family (2-4 Unit),1082-1084 Main St,Waltham,MA,2451,1099000,6,3,Waltham,3400,5502,1890,,323,,Sold,,,https://www.redfin.com/MA/Waltham/1082-Main-St-02451/home/11811447,MLS PIN,72977824,N,Y,42.3761221,-71.2557007
PAST SALE,July-24-2020,Townhouse,7 Moore St #1,Waltham,MA,2453,650000,3,2.5,Waltham,1952,,2005,,333,83,Sold,,,https://www.redfin.com/MA/Waltham/7-Moore-St-02453/unit-1/home/11822565,MLS PIN,72672568,N,Y,42.3685143,-71.2260805
PAST SALE,September-29-2020,Condo/Co-op,17 Robbins St Unit 3-2,Waltham,MA,2453,410000,1,1,Waltham,800,,1930,,513,300,Sold,,,https://www.redfin.com/MA/Waltham/17-Robbins-St-02453/unit-3-2/home/18960422,MLS PIN,72716027,N,Y,42.364977,-71.2428969
PAST SALE,October-26-2022,Vacant Land,15 Bowker St Lot 1 And 2,Waltham,MA,2453,915000,,,Waltham,,10001,,,,,Sold,,,https://www.redfin.com/MA/Waltham/15-Bowker-St-Lot-1-And-2-02453/home/179310122,MLS PIN,72975504,N,Y,42.3825,-71.20034
PAST SALE,March-15-2023,Condo/Co-op,51 Vernon St #1,Waltham,MA,2453,517000,2,2,Waltham,1117,7327,1900,,463,275,Sold,,,https://www.redfin.com/MA/Waltham/51-Vernon-St-02453/unit-1/home/183840998,MLS PIN,73071635,N,Y,42.3745235,-71.2490493
PAST SALE,August-6-2021,Condo/Co-op,9 Barton St #2,Waltham,MA,2453,385000,1,1,Waltham,755,5000,1900,,510,150,Sold,,,https://www.redfin.com/MA/Waltham/9-Barton-St-02453/unit-2/home/12430688,MLS PIN,72847214,N,Y,42.376146,-71.2283493
PAST SALE,August-31-2020,Single Family Residential,227 Hardy Pond Rd,Waltham,MA,2451,550000,3,1.5,Waltham,1372,10600,1976,,401,,Sold,,,https://www.redfin.com/MA/Waltham/227-Hardy-Pond-Rd-02451/home/11800093,MLS PIN,72691587,N,Y,42.4116163,-71.2478159
PAST SALE,October-27-2022,Townhouse,19 Bishops Forest Dr #19,Waltham,MA,2452,775000,3,3,Waltham,2251,2613600,1987,,344,613,Sold,,,https://www.redfin.com/MA/Waltham/19-Bishops-Forest-Dr-02452/unit-19/home/181738056,MLS PIN,73035500,N,Y,42.40221,-71.2294465
PAST SALE,May-16-2022,Single Family Residential,16 Brigham Rd,Waltham,MA,2453,695000,4,3,Waltham,2011,7850,1940,,346,,Sold,,,https://www.redfin.com/MA/Waltham/16-Brigham-Rd-02453/home/11814197,MLS PIN,72965650,N,Y,42.3763527,-71.2129174
PAST SALE,May-27-2021,Single Family Residential,35 Circle Dr,Waltham,MA,2451,705000,4,2,Waltham,1548,11304,1952,,455,,Sold,,,https://www.redfin.com/MA/Waltham/35-Circle-Dr-02452/home/11681539,MLS PIN,72825570,N,Y,42.4046543,-71.2193807
PAST SALE,April-27-2020,Condo/Co-op,20 Flood St #5,Waltham,MA,2453,272500,2,1,Waltham,627,,1963,,435,350,Sold,,,https://www.redfin.com/MA/Waltham/20-Flood-St-02453/unit-5/home/11822198,MLS PIN,72648006,N,Y,42.3672943,-71.2243647
PAST SALE,April-4-2019,Condo/Co-op,180 - B River St #8,Waltham,MA,2453,205000,1,1,Waltham,531,,1983,,386,363,Sold,,,https://www.redfin.com/MA/Waltham/180A-River-St-02453/unit-8/home/11821553,MLS PIN,72466104,N,Y,42.3705612,-71.2232772
PAST SALE,February-6-2023,Single Family Residential,24 Coolidge Ave,Waltham,MA,2452,610000,3,1.5,Waltham,1152,5062,1955,,530,,Sold,,,https://www.redfin.com/MA/Waltham/24-Coolidge-Ave-02452/home/11804006,MLS PIN,73068895,N,Y,42.4044602,-71.2180224
PAST SALE,April-28-2022,Condo/Co-op,168 Adams St #1,Waltham,MA,2453,538000,2,1,Waltham,850,,1900,,633,250,Sold,,,https://www.redfin.com/MA/Waltham/168-Adams-St-02453/unit-1/home/11823022,MLS PIN,72952072,N,Y,42.3652412,-71.241029
PAST SALE,December-8-2020,Single Family Residential,39 Leitha Dr,Waltham,MA,2451,704000,3,2,Waltham,1520,18513,1960,,463,,Sold,,,https://www.redfin.com/MA/Waltham/39-Leitha-Dr-02451/home/11799466,MLS PIN,72734603,N,Y,42.4133412,-71.2384883
PAST SALE,April-16-2019,Multi-Family (2-4 Unit),7-9 Mechanic Srteet,Waltham,MA,2453,700000,8,3,Waltham,2900,4760,1900,,241,,Sold,,,https://www.redfin.com/MA/Waltham/7-9-Mechanic-St-02453/home/11813172,MLS PIN,72455342,N,Y,42.3747519,-71.2377396
PAST SALE,May-27-2021,Townhouse,133 Ash St #1,Waltham,MA,2453,820000,3,3.5,Waltham,2000,,2021,,410,200,Sold,,,https://www.redfin.com/MA/Waltham/133-Ash-St-02453/unit-1/home/174916844,MLS PIN,72812600,N,Y,42.3654293,-71.2369064
PAST SALE,April-13-2020,Single Family Residential,543 Lexington St,Waltham,MA,2452,692000,3,1.5,Piety Corner,2142,6011,1935,,323,,Sold,,,https://www.redfin.com/MA/Waltham/543-Lexington-St-02452/home/11804593,MLS PIN,72617601,N,Y,42.3942997,-71.2367393
PAST SALE,December-7-2021,Single Family Residential,33 Winter St,Waltham,MA,2451,700000,4,2,Piety Corner,2170,15002,1955,,323,,Sold,,,https://www.redfin.com/MA/Waltham/33-Winter-St-02451/home/11804366,MLS PIN,72890468,N,Y,42.3946269,-71.2445675
PAST SALE,October-31-2019,Condo/Co-op,204 Clocktower Dr #212,Waltham,MA,2452,461000,2,1,Waltham,1030,,2009,,448,433,Sold,,,https://www.redfin.com/MA/Waltham/204-Clocktower-Dr-02452/unit-212/home/39584782,MLS PIN,72571000,N,Y,42.4093836,-71.2231042
PAST SALE,October-14-2021,Single Family Residential,214 Warren St,Waltham,MA,2453,825000,3,2,Warrendale,2988,6997,1955,,276,,Sold,,,https://www.redfin.com/MA/Waltham/214-Warren-St-02453/home/11810182,MLS PIN,72892752,N,Y,42.380281,-71.2043315
PAST SALE,December-21-2021,Single Family Residential,26 Marivista Ave,Waltham,MA,2451,550000,3,1.5,Lakeview,1104,3999,1962,,498,,Sold,,,https://www.redfin.com/MA/Waltham/26-Marivista-Ave-02451/home/11803237,MLS PIN,72916866,N,Y,42.4014497,-71.2396111
PAST SALE,December-6-2018,Multi-Family (2-4 Unit),46/48 Adams St,Waltham,MA,2453,591000,6,2.5,Waltham,2228,7500,1870,,265,,Sold,,,https://www.redfin.com/MA/Waltham/46-Adams-St-02453/home/11817165,MLS PIN,72381711,N,Y,42.3695472,-71.2394504
PAST SALE,February-28-2022,Single Family Residential,148 Brewster Rd,Waltham,MA,2451,1125000,3,3.5,Glendmeadow West,3209,9239,2013,,351,,Sold,,,https://www.redfin.com/MA/Waltham/148-Brewster-Rd-02451/home/11799243,MLS PIN,72933812,N,Y,42.4147038,-71.2478623
PAST SALE,October-15-2020,Single Family Residential,21 Barbara Rd,Waltham,MA,2453,682500,3,1.5,Waltham,1458,5750,1930,,468,,Sold,,,https://www.redfin.com/MA/Waltham/21-Barbara-Rd-02453/home/11815594,MLS PIN,72709872,N,Y,42.3756627,-71.2105969
PAST SALE,September-12-2018,Single Family Residential,121 Bedford St,Waltham,MA,2453,530000,4,2,Lower Cedarwood,2179,3250,1958,,243,,Sold,,,https://www.redfin.com/MA/Waltham/121-Bedford-St-02453/home/11811980,MLS PIN,72376951,N,Y,42.3720282,-71.2523172
PAST SALE,October-19-2018,Condo/Co-op,636 Moody St #3,Waltham,MA,2453,420000,2,1,Waltham,1120,,1900,,375,220,Sold,,,https://www.redfin.com/MA/Waltham/636-Moody-St-02453/unit-3/home/25715139,MLS PIN,72383258,N,Y,42.3653463,-71.2380323
PAST SALE,July-9-2021,Condo/Co-op,64 Cherry St #1,Waltham,MA,2453,286000,1,1,South Waltham,435,,1920,,657,120,Sold,,,https://www.redfin.com/MA/Waltham/64-Cherry-St-02453/unit-1/home/11823077,MLS PIN,72831252,N,Y,42.3672146,-71.239616
PAST SALE,February-28-2020,Single Family Residential,23 Wilbur St,Waltham,MA,2453,630000,3,3,Waltham,1650,5009,1960,,382,,Sold,,,https://www.redfin.com/MA/Waltham/23-Wilbur-St-02453/home/11809874,MLS PIN,72598663,N,Y,42.3823763,-71.2043783
PAST SALE,,Condo/Co-op,600 Trapelo Rd #1,Waltham,MA,2452,635000,2,3.5,,1344,,1998,,472,,,,,https://www.redfin.com/MA/Waltham/600-Trapelo-Rd-02452/unit-1/home/11798142,,,N,Y,42.4040861,-71.2169086
PAST SALE,June-26-2019,Single Family Residential,24 Lakeview Ter,Waltham,MA,2451,535000,4,1.5,Lakeview,1182,3000,1930,,453,,Sold,,,https://www.redfin.com/MA/Waltham/24-Lakeview-Ter-02451/home/11801861,MLS PIN,72497436,N,Y,42.4054624,-71.2452172
PAST SALE,February-17-2022,Condo/Co-op,1105 Lexington St Unit 6-6,Waltham,MA,2451,383750,2,1,Waltham,731,,1970,,525,455,Sold,,,https://www.redfin.com/MA/Waltham/1105-Lexington-St-02452/unit-6-6/home/11800636,MLS PIN,72928245,N,Y,42.4122892,-71.2322697
PAST SALE,May-27-2022,Multi-Family (2-4 Unit),153-155 Alder St,Waltham,MA,2453,940000,4,2,South Waltham,2092,5702,1910,,449,,Sold,,,https://www.redfin.com/MA/Waltham/153-Alder-St-02453/home/11818510,MLS PIN,72970233,N,Y,42.3656802,-71.2303868
PAST SALE,July-29-2022,Single Family Residential,118 Princeton Ave,Waltham,MA,2451,513000,2,1,Lakeview,806,3202,1930,,636,,Sold,,,https://www.redfin.com/MA/Waltham/118-Princeton-Ave-02451/home/11802108,MLS PIN,73004281,N,Y,42.4017129,-71.2434537
PAST SALE,December-29-2021,Single Family Residential,75 Virginia Rd,Waltham,MA,2451,876000,3,2,Cedarwood,2500,6000,1938,,350,,Sold,,,https://www.redfin.com/MA/Waltham/75-Virginia-Rd-02453/home/11815967,MLS PIN,72916652,N,Y,42.3714213,-71.2625725
PAST SALE,May-3-2021,Multi-Family (2-4 Unit),85 Colburn St,Waltham,MA,2453,600000,4,2,Waltham,1482,5619,1910,,405,,Sold,,,https://www.redfin.com/MA/Waltham/85-Colburn-St-02453/home/11821170,MLS PIN,72784909,N,Y,42.3744929,-71.2670064
PAST SALE,July-26-2019,Townhouse,88 Worcester Ln #88,Waltham,MA,2451,625000,2,2.5,Piety Corner,1592,,1997,,393,318,Sold,,,https://www.redfin.com/MA/Waltham/88-Worcester-Ln-02451/unit-88/home/77513166,MLS PIN,72501791,N,Y,42.3899497,-71.2437308
PAST SALE,September-3-2021,Townhouse,325 Bacon St #6,Waltham,MA,2451,792000,2,2.5,Piety Corner,2534,60000,2013,,313,318,Sold,,,https://www.redfin.com/MA/Waltham/325-Bacon-St-02451/unit-6/home/113787692,MLS PIN,72835624,N,Y,42.3874607,-71.2396272
PAST SALE,August-30-2018,Single Family Residential,59 Lincoln St,Waltham,MA,2451,1925000,5,5.5,Piety Corner,7252,35670,1925,,265,,Sold,,,https://www.redfin.com/MA/Waltham/59-Lincoln-St-02451/home/11804607,MLS PIN,72368477,N,Y,42.3931448,-71.2399733
PAST SALE,August-17-2020,Condo/Co-op,83 Guinan St #1,Waltham,MA,2451,425000,2,1,Waltham,768,,1900,,553,200,Sold,,,https://www.redfin.com/MA/Waltham/83-Guinan-St-02451/unit-1/home/28920260,MLS PIN,72680480,N,Y,42.38086424,-71.24605958
PAST SALE,November-19-2018,Single Family Residential,20 Ivy Ln,Waltham,MA,2452,903000,4,2.5,Forest Street by Bentley College,3584,23290,1977,,252,,Sold,,,https://www.redfin.com/MA/Waltham/20-Ivy-Ln-02452/home/11806901,MLS PIN,72408813,N,Y,42.3898521,-71.2266544
PAST SALE,April-1-2019,Single Family Residential,11 Potter Rd,Waltham,MA,2453,645000,3,3,Waltham,2393,8102,1950,,270,,Sold,,,https://www.redfin.com/MA/Waltham/11-Potter-Rd-02453/home/11814268,MLS PIN,72462297,N,Y,42.376781,-71.2194138
PAST SALE,,Condo/Co-op,53 Bartlett Way #204,Waltham,MA,2452,720000,2,2,,1585,,2006,,454,,,,,https://www.redfin.com/MA/Waltham/53-Bartlett-Way-02452/unit-204/home/12430742,,,N,Y,42.4092234,-71.2250069
PAST SALE,January-28-2021,Multi-Family (2-4 Unit),70 Cherry St,Waltham,MA,2453,760000,3,2,Waltham,1973,7035,1910,,385,,Sold,,,https://www.redfin.com/MA/Waltham/70-Cherry-St-02453/home/11817485,MLS PIN,72746785,N,Y,42.367178,-71.2393899
PAST SALE,August-6-2021,Condo/Co-op,53 Bartlett Way #1204,Waltham,MA,2451,720000,2,2,Waltham,1585,,2006,,454,598,Sold,,,https://www.redfin.com/MA/Waltham/53-Bartlett-Way-02452/unit-1204/home/175622144,MLS PIN,72862514,N,Y,42.4092234,-71.2250069
PAST SALE,April-26-2019,Single Family Residential,11 Crestview Rd,Waltham,MA,2451,505000,3,1,Waltham,944,10979,1952,,535,,Sold,,,https://www.redfin.com/MA/Waltham/11-Crestview-Rd-02451/home/113075377,MLS PIN,72454073,N,Y,42.4199299,-71.2636398
PAST SALE,July-16-2018,Condo/Co-op,50 Lionel Ave Unit D,Waltham,MA,2452,371000,2,1,Waltham,780,,1979,,476,366,Sold,,,https://www.redfin.com/MA/Waltham/50-Lionel-Ave-02452/unit-D/home/11800860,MLS PIN,72336854,N,Y,42.4063821,-71.231538
PAST SALE,May-28-2021,Single Family Residential,81 Robbins St,Waltham,MA,2453,635000,3,1.5,Waltham,1508,6752,1900,,421,,Sold,,,https://www.redfin.com/MA/Waltham/81-Robbins-St-02453/home/11821664,MLS PIN,72823414,N,Y,42.3644062,-71.2397412
PAST SALE,November-18-2021,Single Family Residential,66 Arcadia Ave,Waltham,MA,2451,970000,3,3.5,Briarwood,1920,3977,2015,,505,,Sold,,,https://www.redfin.com/MA/Waltham/66-Arcadia-Ave-02452/home/11805550,MLS PIN,72902079,N,Y,42.3985714,-71.2027399
PAST SALE,February-25-2021,Townhouse,14 Bishops Forest Dr #14,Waltham,MA,2452,663925,2,3.5,Waltham,2571,2613600,1995,,258,519,Sold,,,https://www.redfin.com/MA/Waltham/14-Bishops-Forest-Dr-02452/unit-14/home/77504611,MLS PIN,72766296,N,Y,42.40216,-71.232175
PAST SALE,April-16-2019,Condo/Co-op,388 Crescent St #3,Waltham,MA,2453,327000,1,1,Waltham,758,,1950,,431,275,Sold,,,https://www.redfin.com/MA/Waltham/388-Crescent-St-02453/unit-3/home/11822944,MLS PIN,72462158,N,Y,42.3621754,-71.2407685
PAST SALE,July-2-2019,Townhouse,71 Bennett St #2,Waltham,MA,2453,604000,3,2.5,Waltham,1700,,2006,,355,,Sold,,,https://www.redfin.com/MA/Waltham/71-Bennett-St-02453/unit-2/home/11823068,MLS PIN,72485993,N,Y,42.3735255,-71.2225344
PAST SALE,April-28-2022,Single Family Residential,21 Shawmut Rd,Waltham,MA,2452,700000,3,2,Waltham,2223,9474,1960,,315,,Sold,,,https://www.redfin.com/MA/Waltham/21-Shawmut-Rd-02452/home/11807149,MLS PIN,72960917,N,Y,42.3893842,-71.2021966
PAST SALE,October-15-2021,Townhouse,35 Maple #3,Waltham,MA,2451,589000,4,2,Waltham,1513,,1900,,389,252,Sold,,,https://www.redfin.com/MA/Waltham/35-Maple-St-02453/unit-3/home/39584783,MLS PIN,72899176,N,Y,42.3679864,-71.2407923
PAST SALE,January-27-2021,Single Family Residential,30 Rosemont Ave,Waltham,MA,2451,890000,4,3.5,Waltham,2774,3596,2020,,321,,Sold,,,https://www.redfin.com/MA/Waltham/30-Rosemont-Ave-02451/home/173887653,MLS PIN,72764264,N,Y,42.3995152,-71.2415936
PAST SALE,August-20-2019,Single Family Residential,22 Florence Rd,Waltham,MA,2453,925000,4,2.5,Cedarwood Community,2554,5009,2010,,362,,Sold,,,https://www.redfin.com/MA/Waltham/22-Florence-Rd-02453/home/26837476,MLS PIN,72535430,N,Y,42.3716079,-71.2599255
PAST SALE,October-1-2019,Condo/Co-op,90 Lionel Ave Unit A,Waltham,MA,2452,400000,2,1,Waltham,830,,1979,,482,375,Sold,,,https://www.redfin.com/MA/Waltham/90-Lionel-Ave-02452/unit-A/home/11800867,MLS PIN,72550433,N,Y,42.4059995,-71.2307282
PAST SALE,August-21-2020,Townhouse,210 Ash St #2,Waltham,MA,2453,825000,3,2.5,Waltham,2282,,2016,,362,250,Sold,,,https://www.redfin.com/MA/Waltham/210-Ash-St-02453/unit-2/home/108266010,MLS PIN,72687851,N,Y,42.365127,-71.2332443
PAST SALE,May-3-2021,Townhouse,120 Bright St #2,Waltham,MA,2453,820000,3,2.5,Waltham,2576,,2021,,318,150,Sold,,,https://www.redfin.com/MA/Waltham/120-Bright-St-02453/unit-2/home/174684773,MLS PIN,72797704,N,Y,42.3731674,-71.2233706
PAST SALE,March-28-2019,Single Family Residential,71 Edwin Rd,Waltham,MA,2453,590000,3,2.5,Warrendale,1782,5009,1940,,331,,Sold,,,https://www.redfin.com/MA/Waltham/71-Edwin-Rd-02453/home/11809625,MLS PIN,72444222,N,Y,42.3804584,-71.2127866
PAST SALE,October-26-2022,Condo/Co-op,52 Jacqueline Rd #12,Waltham,MA,2452,313000,1,1,Waltham,720,,1979,,435,371,Sold,,,https://www.redfin.com/MA/Waltham/52-Jacqueline-Rd-02452/unit-12/home/11801313,MLS PIN,73044561,N,Y,42.4071756,-71.2297299
PAST SALE,June-28-2022,Condo/Co-op,16 Winter St Unit 46A,Waltham,MA,2451,400800,2,2,Waltham,1092,,1981,,367,339,Sold,,,https://www.redfin.com/MA/Waltham/16-Winter-St-02451/unit-46A/home/11804432,MLS PIN,72974137,N,Y,42.3940196,-71.2445653
PAST SALE,June-15-2021,Multi-Family (2-4 Unit),328-330 Newton St,Waltham,MA,2453,880000,6,3,South Waltham,3281,5009,1900,,268,,Sold,,,https://www.redfin.com/MA/Waltham/328-Newton-St-02453/home/11817590,MLS PIN,72806651,N,Y,42.3657921,-71.2315578
PAST SALE,July-13-2018,Townhouse,41 Columbus Ave #1,Waltham,MA,2451,582500,4,1.5,Waltham,1704,,1900,,342,150,Sold,,,https://www.redfin.com/MA/Waltham/41-Columbus-Ave-02451/unit-1/home/18960359,MLS PIN,72345786,N,Y,42.3785387,-71.2488511
PAST SALE,May-17-2021,Single Family Residential,252 Dale St,Waltham,MA,2451,707000,3,1.5,Highlands,1832,7501,1900,,386,,Sold,,,https://www.redfin.com/MA/Waltham/252-Dale-St-02451/home/11808330,MLS PIN,72811062,N,Y,42.3855583,-71.2482335
PAST SALE,April-7-2022,Single Family Residential,16-1/2 Cutter St,Waltham,MA,2453,585000,2,2,Waltham,1194,3101,1910,,490,,Sold,,,https://www.redfin.com/MA/Waltham/16-1-2-Cutter-St-02453/home/11818365,MLS PIN,72945390,N,Y,42.3672825,-71.2301814
PAST SALE,May-31-2022,Single Family Residential,41 Cheryl Ln,Waltham,MA,2451,861900,3,2,LINCOLN HEIGHTS,2084,15002,1960,,414,,Sold,,,https://www.redfin.com/MA/Waltham/41-Cheryl-Ln-02451/home/11801691,MLS PIN,72979475,N,Y,42.4003443,-71.2504618
PAST SALE,June-4-2019,Multi-Family (2-4 Unit),6-8 Mayall Rd,Waltham,MA,2453,859800,4,3,Waltham,2923,5000,1930,,294,,Sold,,,https://www.redfin.com/MA/Waltham/6-8-Mayall-Rd-02453/home/11814167,MLS PIN,72476435,N,Y,42.3781792,-71.2135763
PAST SALE,May-30-2023,Townhouse,340 Bishops Forest Dr #340,Waltham,MA,2452,840000,3,3.5,Waltham,2300,,1989,,365,667,Sold,,,https://www.redfin.com/MA/Waltham/340-Bishops-Forest-Dr-02452/unit-340/home/101649776,MLS PIN,73104622,N,Y,42.398854,-71.225671
PAST SALE,December-9-2019,Single Family Residential,11 Montview Ave,Waltham,MA,2451,556000,3,2,Waltham,1344,4225,1950,,414,,Sold,,,https://www.redfin.com/MA/Waltham/11-Montview-Ave-02451/home/11803270,MLS PIN,72581450,N,Y,42.4010438,-71.236864
PAST SALE,October-2-2019,Single Family Residential,180 Lyman St,Waltham,MA,2452,1480000,4,4.5,Waltham,5000,12000,2019,,296,,Sold,,,https://www.redfin.com/MA/Waltham/180-Lyman-St-02452/home/171432406,MLS PIN,72571956,N,Y,42.3834465,-71.2312485
PAST SALE,August-16-2022,Condo/Co-op,19 Underwood Park #1,Waltham,MA,2453,510000,3,1,Waltham,1369,,1910,,373,250,Sold,,,https://www.redfin.com/MA/Waltham/19-Underwood-Park-02453/unit-1/home/11822487,MLS PIN,72999410,N,Y,42.3606411,-71.238383
PAST SALE,April-11-2019,Condo/Co-op,41 Lionel Ave Unit A,Waltham,MA,2452,362000,2,1,Waltham,760,,1979,,476,353,Sold,,,https://www.redfin.com/MA/Waltham/41-Lionel-Ave-02452/unit-A/home/11803099,MLS PIN,72458492,N,Y,42.4060458,-71.2322655
PAST SALE,May-31-2022,Townhouse,388 River St #388,Waltham,MA,2453,438000,3,1,Waltham,1265,,1910,,346,150,Sold,,,https://www.redfin.com/MA/Waltham/388-River-St-02453/unit-388/home/56760273,MLS PIN,72969620,N,Y,42.3740498,-71.2314102
PAST SALE,March-7-2022,Single Family Residential,318 Lincoln St,Waltham,MA,2451,1250000,4,3.5,LINCOLN HEIGHTS,3200,5698,2022,,391,,Sold,,,https://www.redfin.com/MA/Waltham/318-Lincoln-St-02451/home/177818970,MLS PIN,72931676,N,Y,42.3989171,-71.2463715
PAST SALE,March-31-2023,Single Family Residential,81 Parmenter Rd,Waltham,MA,2453,695000,3,2,Waltham,1211,5449,1910,,574,,Sold,,,https://www.redfin.com/MA/Waltham/81-Parmenter-Rd-02453/home/11820181,MLS PIN,73075993,N,Y,42.3634268,-71.2308775
PAST SALE,May-26-2021,Condo/Co-op,116 Chestnut St #5,Waltham,MA,2453,515000,2,2,Waltham,1460,7980,1900,,353,200,Sold,,,https://www.redfin.com/MA/Waltham/116-Chestnut-St-02453/unit-5/home/11822499,MLS PIN,72815363,N,Y,42.3686725,-71.2358612
PAST SALE,December-29-2022,Single Family Residential,81 Old County Rd,Waltham,MA,2453,1700000,4,3.5,Waltham,4877,77702,1993,,349,,Sold,,,https://www.redfin.com/MA/Waltham/81-Old-County-RD-02453/home/183329600,MLS PIN,73064708,N,Y,42.36245,-71.257723
PAST SALE,May-26-2021,Single Family Residential,82 Woodland Rd,Waltham,MA,2451,700000,4,3,Highlands,1758,5227,1966,,398,,Sold,,,https://www.redfin.com/MA/Waltham/82-Woodland-Rd-02451/home/11807625,MLS PIN,72803729,N,Y,42.3829575,-71.2530708
PAST SALE,January-15-2021,Single Family Residential,7 Sachem St,Waltham,MA,2451,792000,4,2.5,Waltham,1744,9627,2000,,454,,Sold,,,https://www.redfin.com/MA/Waltham/7-Sachem-St-02451/home/11803250,MLS PIN,72749388,N,Y,42.3998119,-71.2401125
PAST SALE,December-10-2021,Multi-Family (2-4 Unit),177 Chestnut St,Waltham,MA,2453,1200000,6,4,South Waltham,4049,6900,1890,,296,,Sold,,,https://www.redfin.com/MA/Waltham/177-Chestnut-St-02453/home/11817340,MLS PIN,72896562,N,Y,42.3680617,-71.2329281
PAST SALE,July-9-2021,Single Family Residential,6 Wilbur St,Waltham,MA,2453,1110000,3,2.5,Waltham,2424,4152,2021,,458,,Sold,,,https://www.redfin.com/MA/Waltham/6-Wilbur-St-02453/home/175264251,MLS PIN,72843033,N,Y,42.3828569,-71.2048255
PAST SALE,August-31-2022,Single Family Residential,371 Lincoln St,Waltham,MA,2451,775000,3,2,Waltham,1898,16570,1950,,408,,Sold,,,https://www.redfin.com/MA/Waltham/371-Lincoln-St-02451/home/11802380,MLS PIN,73006004,N,Y,42.4010996,-71.2461917
PAST SALE,June-1-2022,Condo/Co-op,86 Brown #3,Waltham,MA,2453,436000,1,1,Waltham,715,,1900,,610,194,Sold,,,https://www.redfin.com/MA/Waltham/86-Brown-St-02453/unit-3/home/18960470,MLS PIN,72966404,N,Y,42.3654506,-71.239298
PAST SALE,June-21-2019,Single Family Residential,39 Graymore Rd,Waltham,MA,2451,820000,3,2.5,Waltham,2143,16988,1958,,383,,Sold,,,https://www.redfin.com/MA/Waltham/39-Graymore-Rd-02451/home/11799810,MLS PIN,72487919,N,Y,42.4086517,-71.250693
PAST SALE,April-29-2021,Single Family Residential,67 Upton Rd,Waltham,MA,2452,550000,2,1,Waltham,1165,6286,1958,,472,,Sold,,,https://www.redfin.com/MA/Waltham/67-Upton-Rd-02452/home/11807137,MLS PIN,72804244,N,Y,42.3893798,-71.2017325
PAST SALE,January-20-2023,Condo/Co-op,60 Lionel Ave Unit B,Waltham,MA,2452,312500,2,1,Waltham,760,,1980,,411,371,Sold,,,https://www.redfin.com/MA/Waltham/60-Lionel-Ave-02452/unit-B/home/11803142,MLS PIN,73063266,N,Y,42.4060384,-71.2313298
PAST SALE,October-9-2019,Single Family Residential,5 Arbor Rd,Newton,MA,2465,825000,3,2.5,West Newton,1505,3928,1938,,548,,Sold,,,https://www.redfin.com/MA/West-Newton/5-Arbor-Rd-02465/home/11495229,MLS PIN,72542882,N,Y,42.3636056,-71.2268864
PAST SALE,April-27-2022,Single Family Residential,11 Sanderson Rd,Waltham,MA,2451,1200000,4,2.5,Piety Corner,2370,10507,2008,,506,,Sold,,,https://www.redfin.com/MA/Waltham/11-Sanderson-Rd-02451/home/25713019,MLS PIN,72948624,N,Y,42.3929562,-71.2412727
PAST SALE,December-1-2020,Townhouse,28 College Farm Rd #1,Waltham,MA,2451,423000,3,2,Lakeview,1401,,1967,,302,,Sold,,,https://www.redfin.com/MA/Waltham/28-College-Farm-Rd-02451/unit-1/home/11823184,MLS PIN,72742825,N,Y,42.3989825,-71.2354365
PAST SALE,September-28-2022,Single Family Residential,269 South St,Waltham,MA,2453,540000,3,1.5,Waltham,1155,6072,1950,,468,,Sold,,,https://www.redfin.com/MA/Waltham/269-South-St-02453/home/11816614,MLS PIN,73023482,N,Y,42.3676891,-71.2529553
PAST SALE,March-23-2022,Single Family Residential,56 Mayall Rd,Waltham,MA,2453,875000,4,1.5,Warrendale,1850,7392,1934,,473,,Sold,,,https://www.redfin.com/MA/Waltham/56-Mayall-Rd-02453/home/11809636,MLS PIN,72935449,N,Y,42.3798695,-71.2126389
PAST SALE,June-26-2019,Single Family Residential,1 Wilbur St,Waltham,MA,2453,405000,4,2,Clematis Brook,1728,5000,1950,,234,,Sold,,,https://www.redfin.com/MA/Waltham/1-Wilbur-St-02453/home/11809867,MLS PIN,72505118,N,Y,42.3825683,-71.2050633
PAST SALE,September-26-2022,Townhouse,297 Bishops Forest Dr #297,Waltham,MA,2452,725000,2,2,Waltham,2424,2613600,1989,,299,658,Sold,,,https://www.redfin.com/MA/Waltham/297-Bishops-Forest-Dr-02452/unit-297/home/77497225,MLS PIN,73021471,N,Y,42.3998892,-71.2261908
PAST SALE,January-7-2022,Condo/Co-op,49 Jacqueline Rd #7,Waltham,MA,2451,389900,2,1,Waltham,910,,1979,,428,444,Sold,,,https://www.redfin.com/MA/Waltham/49-Jacqueline-Rd-02452/unit-7/home/11801264,MLS PIN,72921102,N,Y,42.4075965,-71.2309439
PAST SALE,May-1-2023,Single Family Residential,17 Wetherbee Rd,Waltham,MA,2453,770000,3,1.5,Cedarwood,1668,6969,1950,,462,,Sold,,,https://www.redfin.com/MA/Waltham/17-Wetherbee-Rd-02453/home/11816178,MLS PIN,73085605,N,Y,42.3698377,-71.2615517
PAST SALE,September-2-2022,Condo/Co-op,26 Cherry #2,Waltham,MA,2453,475000,1,1,Waltham,785,,1910,,605,225,Sold,,,https://www.redfin.com/MA/Waltham/26-Cherry-St-02453/unit-2/home/22083536,MLS PIN,72988076,N,Y,42.3675714,-71.2416154
PAST SALE,September-4-2020,Single Family Residential,91 Fiske,Waltham,MA,2453,775000,3,3,Cedarwood,1704,11587,1890,,455,,Sold,,,https://www.redfin.com/MA/Waltham/91-Fiske-Ave-02453/home/11816409,MLS PIN,72702946,N,Y,42.3713538,-71.2557975
PAST SALE,August-29-2019,Condo/Co-op,173 Newton St #2,Waltham,MA,2453,360000,1,1,Waltham,904,4240,1900,,398,117,Sold,,,https://www.redfin.com/MA/Waltham/173-Newton-St-02453/unit-2/home/76478885,MLS PIN,72539980,N,Y,42.3713719,-71.2295538
PAST SALE,August-2-2021,Condo/Co-op,132 Clocktower Dr #409,Waltham,MA,2451,615000,2,2,Waltham,1325,,2007,,464,517,Sold,,,https://www.redfin.com/MA/Waltham/132-Clocktower-Dr-02452/unit-409/home/18960438,MLS PIN,72850815,N,Y,42.4084931,-71.2231042
PAST SALE,April-21-2022,Townhouse,27 Pine St #27,Waltham,MA,2453,745000,4,2.5,South Waltham,1978,,1903,,377,,Sold,,,https://www.redfin.com/MA/Waltham/27-Pine-St-02453/home/11822103,MLS PIN,72948824,N,Y,42.3713387,-71.2356027
PAST SALE,July-27-2021,Condo/Co-op,85 Lionel Ave Unit D,Waltham,MA,2452,360000,2,1,Waltham,780,,1979,,462,362,Sold,,,https://www.redfin.com/MA/Waltham/85-Lionel-Ave-02452/unit-D/home/11803800,MLS PIN,72847361,N,Y,42.4055233,-71.2304484
PAST SALE,March-15-2021,Townhouse,29 Orange St #2,Waltham,MA,2453,876000,3,3.5,Waltham,2854,,2018,,307,,Sold,,,https://www.redfin.com/MA/Waltham/29-Orange-St-02453/unit-2/home/145881135,MLS PIN,72780197,N,Y,42.3639183,-71.242456
PAST SALE,June-30-2023,Condo/Co-op,15 Berkshire Rd #2,Waltham,MA,2453,530000,2,1,South Waltham,1561,6104,1930,,340,200,Sold,,,https://www.redfin.com/MA/Waltham/15-Berkshire-Rd-02453/unit-2/home/11822491,MLS PIN,73088036,N,Y,42.3633136,-71.2299777
PAST SALE,October-28-2021,Single Family Residential,54 Crestview Rd,Waltham,MA,2451,627700,3,1,Waltham,912,9257,1955,,688,,Sold,,,https://www.redfin.com/MA/Waltham/54-Crestview-Rd-02451/home/11798407,MLS PIN,72886642,N,Y,42.4213299,-71.2633614
PAST SALE,November-14-2019,Single Family Residential,174 Hammond St,Waltham,MA,2451,660000,3,1.5,Highlands,1810,6229,1890,,365,,Sold,,,https://www.redfin.com/MA/Waltham/174-Hammond-St-02451/home/8774460,MLS PIN,72574576,N,Y,42.3826071,-71.247027
PAST SALE,November-28-2022,Single Family Residential,14 Jennings Rd,Waltham,MA,2451,625000,3,2,Highlands,1505,5502,1965,,415,,Sold,,,https://www.redfin.com/MA/Waltham/14-Jennings-Rd-02451/home/11821008,MLS PIN,73045154,N,Y,42.37949,-71.2529669
PAST SALE,October-25-2021,Single Family Residential,764 Trapelo,Waltham,MA,2452,710000,4,2,Waltham,2300,9039,1950,,309,,Sold,,,https://www.redfin.com/MA/Waltham/764-Trapelo-Rd-02452/home/11801140,MLS PIN,72887284,N,Y,42.4071676,-71.2226169
PAST SALE,June-30-2021,Condo/Co-op,173 Newton St #1,Waltham,MA,2451,500000,2,1,Waltham,1359,,1900,,368,150,Sold,,,https://www.redfin.com/MA/Waltham/173-Newton-St-02453/unit-1/home/76478933,MLS PIN,72834542,N,Y,42.3713719,-71.2295538
PAST SALE,,Condo/Co-op,41 Warren St Unit 1-1,Waltham,MA,2453,370000,2,1,,729,,1982,,508,,,,,https://www.redfin.com/MA/Waltham/41-Warren-St-02453/unit-1-1/home/11815535,,,N,Y,42.3754021,-71.2089493
PAST SALE,March-10-2020,Single Family Residential,27 Lord St,Waltham,MA,2451,849900,4,2.5,Waltham,2100,6055,1915,,405,,Sold,,,https://www.redfin.com/MA/Waltham/27-Lord-St-02451/home/11808198,MLS PIN,72611117,N,Y,42.3840801,-71.2465165
PAST SALE,August-1-2018,Single Family Residential,40 Whittier Ave,Waltham,MA,2451,550000,4,1,Graverson Playground / Hardy Pond,1300,10120,1953,,423,,Sold,,,https://www.redfin.com/MA/Waltham/40-Whittier-Ave-02451/home/11799350,MLS PIN,72351798,N,Y,42.4132862,-71.2429897
PAST SALE,October-20-2022,Condo/Co-op,9 Barton St #32,Waltham,MA,2453,430000,1,1,Waltham,730,5000,1900,,589,200,Sold,,,https://www.redfin.com/MA/Waltham/9-Barton-St-02453/unit-32/home/12430676,MLS PIN,73033888,N,Y,42.376146,-71.2283493
PAST SALE,August-30-2019,Single Family Residential,111 Lake St,Waltham,MA,2451,350000,1,1,Lakeview,624,4009,1920,,561,,Sold,,,https://www.redfin.com/MA/Waltham/111-Lake-St-02451/home/11803052,MLS PIN,72532393,N,Y,42.4037297,-71.2389251
PAST SALE,May-30-2023,Single Family Residential,26 Barbara Rd,Waltham,MA,2453,1000000,4,2,Waltham,1846,5001,1935,,542,,Sold,,,https://www.redfin.com/MA/Waltham/26-Barbara-Rd-02453/home/11815626,MLS PIN,73090697,N,Y,42.3759603,-71.2110298
PAST SALE,February-27-2019,Townhouse,89 South St #1,Waltham,MA,2453,560000,2,1.5,Waltham,1402,,2005,,399,256,Sold,,,https://www.redfin.com/MA/Waltham/89-South-St-02453/unit-1/home/11823097,MLS PIN,72439418,N,Y,42.3729242,-71.2503682
PAST SALE,October-31-2018,Single Family Residential,22 Crafts St,Waltham,MA,2453,550000,3,1,Waltham,1386,5009,1920,,397,,Sold,,,https://www.redfin.com/MA/Waltham/22-Crafts-St-02453/home/11819883,MLS PIN,72390076,N,Y,42.3617959,-71.2352862
PAST SALE,April-26-2021,Condo/Co-op,56 Cherry St #1,Waltham,MA,2453,432000,2,1,Waltham,688,,1910,,628,200,Sold,,,https://www.redfin.com/MA/Waltham/56-Cherry-St-02453/unit-1/home/11823100,MLS PIN,72800004,N,Y,42.3673135,-71.2401034
PAST SALE,August-26-2022,Townhouse,165 River St #2,Waltham,MA,2453,1330000,4,3.5,Waltham,3720,,2022,,358,200,Sold,,,https://www.redfin.com/MA/Waltham/165-River-St-02453/unit-2/home/181104384,MLS PIN,73026719,N,Y,42.3706092,-71.2221984
PAST SALE,October-5-2018,Townhouse,36 Prospect St #3,Waltham,MA,2453,530000,2,1.5,Waltham,1168,,2005,,454,203,Sold,,,https://www.redfin.com/MA/Waltham/36-Prospect-St-02453/unit-3/home/11822881,MLS PIN,72382925,N,Y,42.3748761,-71.2460989
PAST SALE,October-29-2020,Condo/Co-op,74 School St #23,Waltham,MA,2452,400000,2,1,Waltham,733,,1985,,546,307,Sold,,,https://www.redfin.com/MA/Waltham/74-School-St-02452/unit-23/home/11812978,MLS PIN,72724445,N,Y,42.3777607,-71.2343064
PAST SALE,July-16-2018,Single Family Residential,958 Trapelo Rd,Waltham,MA,2452,635000,3,1.5,Waltham,1456,14806,1950,,436,,Sold,,,https://www.redfin.com/MA/Waltham/958-Trapelo-Rd-02452/home/11801057,MLS PIN,72324282,N,Y,42.4097767,-71.2310167
PAST SALE,June-1-2020,Single Family Residential,38 Helen St,Waltham,MA,2452,630000,4,1.5,Snow Ridge Estates,1344,5009,1990,,469,,Sold,,,https://www.redfin.com/MA/Waltham/38-Helen-St-02452/home/11801490,MLS PIN,72653342,N,Y,42.4068008,-71.2175639
PAST SALE,November-28-2018,Single Family Residential,43 Upland Rd,Waltham,MA,2451,515000,3,1.5,Highlands,1651,7470,1954,,312,,Sold,,,https://www.redfin.com/MA/Waltham/43-Upland-Rd-02451/home/11807530,MLS PIN,72415763,N,Y,42.3835494,-71.2510643
PAST SALE,December-18-2020,Condo/Co-op,16 Winter St Unit 48A,Waltham,MA,2451,425000,2,2,Waltham,1178,,1981,,361,386,Sold,,,https://www.redfin.com/MA/Waltham/16-Winter-St-02451/unit-48A/home/11804434,MLS PIN,72743528,N,Y,42.3940196,-71.2445653
PAST SALE,March-28-2019,Multi-Family (2-4 Unit),57-59 Lyman St,Waltham,MA,2452,720000,4,2,Waltham,2541,5500,1920,,283,,Sold,,,https://www.redfin.com/MA/Waltham/57-Lyman-St-02452/home/11809371,MLS PIN,72450524,N,Y,42.3792167,-71.2303147
PAST SALE,July-31-2020,Condo/Co-op,18 Myrtle St #1,Waltham,MA,2453,520000,3,1.5,Waltham,1040,,1910,,500,230,Sold,,,https://www.redfin.com/MA/Waltham/18-Myrtle-St-02453/unit-1/home/168897093,MLS PIN,72663266,N,Y,42.3664234,-71.236976
PAST SALE,May-31-2023,Condo/Co-op,43 Angleside Rd #1,Waltham,MA,2453,450000,2,2,South Waltham,1168,,1980,,385,480,Sold,,,https://www.redfin.com/MA/Waltham/43-Angleside-Rd-02453/unit-1/home/11818863,MLS PIN,73096044,N,Y,42.359071,-71.2583995
PAST SALE,November-15-2019,Condo/Co-op,94 Cushing St #2,Waltham,MA,2453,327500,1,1,Waltham,641,,1910,,511,100,Sold,,,https://www.redfin.com/MA/Waltham/94-Cushing-St-02453/unit-2/home/39584808,MLS PIN,72563751,N,Y,42.3689974,-71.2326155
PAST SALE,May-19-2022,Townhouse,15 Kings Way #20,Waltham,MA,2451,851000,2,3.5,Waltham,2515,,1989,,338,435,Sold,,,https://www.redfin.com/MA/Waltham/15-Kings-Way-02451/unit-20/home/11800176,MLS PIN,72960614,N,Y,42.4071271,-71.250345
PAST SALE,May-1-2023,Condo/Co-op,30 Chester Ave #2,Waltham,MA,2453,720000,4,2,Waltham,2232,,2016,,323,150,Sold,,,https://www.redfin.com/MA/Waltham/30-Chester-Ave-02453/unit-2/home/103639426,MLS PIN,73090773,N,Y,42.3630666,-71.2405893
PAST SALE,June-22-2020,Townhouse,298 BISHOPS FOREST Dr #298,Waltham,MA,2452,650000,3,3,Waltham,2660,,1989,,244,742,Sold,,,https://www.redfin.com/MA/Waltham/298-Bishops-Forest-Dr-02452/unit-298/home/77504537,MLS PIN,72663955,N,Y,42.398854,-71.225671
PAST SALE,June-27-2019,Condo/Co-op,6 Cushing St #1,Waltham,MA,2453,545000,3,1,Waltham,1669,,1885,,327,297,Sold,,,https://www.redfin.com/MA/Waltham/6-Cushing-St-02453/unit-1/home/11823122,MLS PIN,72514499,N,Y,42.3695113,-71.2368237
PAST SALE,April-29-2021,Single Family Residential,52 Wellington St,Waltham,MA,2451,639900,3,1,WEST END,1433,5001,1930,,447,,Sold,,,https://www.redfin.com/MA/Waltham/52-Wellington-St-02451/home/11438173,MLS PIN,72801193,N,Y,42.378132,-71.2486852
PAST SALE,August-27-2021,Single Family Residential,161 Lake St,Waltham,MA,2451,825000,3,3.5,Lakeview,2160,3528,2011,,382,,Sold,,,https://www.redfin.com/MA/Waltham/161-Lake-St-02451/home/40029685,MLS PIN,72847657,N,Y,42.4041196,-71.2411791
PAST SALE,November-10-2022,Single Family Residential,7 Auburn Ter,Waltham,MA,2453,705000,3,2,Lower Cedarwood,1300,4500,1890,,542,,Sold,,,https://www.redfin.com/MA/Waltham/7-Auburn-Ter-02453/home/11811701,MLS PIN,73042629,N,Y,42.3729538,-71.2509205
PAST SALE,September-2-2022,Condo/Co-op,172 River St Unit B3,Waltham,MA,2453,281500,1,1,South Waltham,586,,1983,,480,336,Sold,,,https://www.redfin.com/MA/Waltham/172-River-St-02453/unit-B3/home/11818143,MLS PIN,73018576,N,Y,42.3702919,-71.222598
PAST SALE,July-9-2019,Single Family Residential,28 Hollace St,Waltham,MA,2453,1140000,4,4,Warrendale,2740,7492,2019,,416,,Sold,,,https://www.redfin.com/MA/Waltham/28-Hollace-St-02453/home/11809855,MLS PIN,72505655,N,Y,42.3828143,-71.2037281
PAST SALE,October-27-2022,Single Family Residential,34 Edwin Rd,Waltham,MA,2453,758000,3,2,Waltham,1404,5297,1930,,540,,Sold,,,https://www.redfin.com/MA/Waltham/34-Edwin-Rd-02453/home/11809686,MLS PIN,73037411,N,Y,42.3792807,-71.2139848
PAST SALE,June-24-2021,Single Family Residential,15 Lakeview Ave,Waltham,MA,2451,929000,3,2.5,Waltham,2500,3200,2021,,372,,Sold,,,https://www.redfin.com/MA/Waltham/15-Lakeview-Ave-02451/home/175212255,MLS PIN,72838607,N,Y,42.4036458,-71.2453396
PAST SALE,November-13-2019,Single Family Residential,2 Nottingham St,Waltham,MA,2452,815000,3,3.5,Waltham,2000,3998,2010,,408,,Sold,,,https://www.redfin.com/MA/Waltham/2-Nottingham-St-02452/home/25710905,MLS PIN,72571412,N,Y,42.3981053,-71.202078
PAST SALE,June-17-2019,Single Family Residential,34 Ravenswood Rd,Waltham,MA,2453,579000,3,1,Waltham,1600,11310,1958,,362,,Sold,,,https://www.redfin.com/MA/Waltham/34-Ravenswood-Rd-02453/home/11810885,MLS PIN,72463570,N,Y,42.375799,-71.2621085
PAST SALE,June-14-2019,Single Family Residential,57 Whitman Rd,Waltham,MA,2453,675000,4,2,Waltham,1356,5850,1950,,498,,Sold,,,https://www.redfin.com/MA/Waltham/57-Whitman-Rd-02453/home/11815309,MLS PIN,72488291,N,Y,42.3756547,-71.2067892
PAST SALE,March-5-2019,Townhouse,47 Alder St #7,Waltham,MA,2453,475000,2,1.5,Waltham,1248,,2005,,381,390,Sold,,,https://www.redfin.com/MA/Waltham/47-Alder-St-02453/unit-7/home/11822741,MLS PIN,72442337,N,Y,42.3665772,-71.2353152
PAST SALE,February-5-2020,Multi-Family (2-4 Unit),8-10 Falmouth Rd,Waltham,MA,2453,740000,4,2,Waltham,2568,5006,1925,,288,,Sold,,,https://www.redfin.com/MA/Waltham/8-Falmouth-Rd-02453/home/11820112,MLS PIN,72513314,N,Y,42.3633402,-71.228191
PAST SALE,July-15-2020,Townhouse,236 Bishops Forest Dr #236,Waltham,MA,2452,665000,2,2.5,Waltham,2663,2613600,1989,,250,661,Sold,,,https://www.redfin.com/MA/Waltham/236-Bishops-Forest-Dr-02452/home/11803547,MLS PIN,72673296,N,Y,42.4006853,-71.2280424
PAST SALE,July-16-2019,Single Family Residential,44 Lafayette St,Waltham,MA,2453,694900,3,2,Rangley Acres,2336,10498,1950,,297,,Sold,,,https://www.redfin.com/MA/Waltham/44-Lafayette-St-02453/home/11814630,MLS PIN,72508862,N,Y,42.3747868,-71.216166
PAST SALE,August-20-2020,Single Family Residential,111 Sheffield Rd,Waltham,MA,2451,650000,3,1.5,Glen Meadow West,1860,9191,1953,,349,,Sold,,,https://www.redfin.com/MA/Waltham/111-Sheffield-Rd-02451/home/11799004,MLS PIN,72675949,N,Y,42.4157008,-71.2416903
PAST SALE,June-8-2022,Single Family Residential,59 Vernon St,Waltham,MA,2453,1000000,5,2.5,Waltham,1872,8790,1930,,534,,Sold,,,https://www.redfin.com/MA/Waltham/59-Vernon-St-02453/home/11812641,MLS PIN,72964338,N,Y,42.3745126,-71.2494401
PAST SALE,August-27-2020,Single Family Residential,74 Albemarle Rd,Waltham,MA,2452,735000,3,2.5,Waltham,2200,3615,2007,,334,,Sold,,,https://www.redfin.com/MA/Waltham/74-Albemarle-Rd-02452/home/18960375,MLS PIN,72682955,N,Y,42.3952836,-71.2009647
PAST SALE,August-18-2021,Townhouse,19 Orange St #1,Waltham,MA,2453,765000,3,2.5,South Waltham,2594,5227,2015,,295,,Sold,,,https://www.redfin.com/MA/Waltham/19-Orange-St-02453/unit-1/home/61766124,MLS PIN,72853748,N,Y,42.3640688,-71.2429362
PAST SALE,March-26-2020,Single Family Residential,210 Main St,Waltham,MA,2453,903000,4,3.5,Waltham,2896,5053,1910,,312,,Sold,,,https://www.redfin.com/MA/Waltham/210-Main-St-02453/home/11814365,MLS PIN,72615896,N,Y,42.3765718,-71.2172799
PAST SALE,April-27-2022,Condo/Co-op,55 Riverview Ave #4,Waltham,MA,2453,497000,1,1,South Waltham,878,,1930,,566,150,Sold,,,https://www.redfin.com/MA/Waltham/55-Riverview-Ave-02453/unit-4/home/39819349,MLS PIN,72950109,N,Y,42.3615735,-71.2482932
PAST SALE,October-28-2021,Townhouse,66 Bishops Forest Dr #66,Waltham,MA,2452,812000,3,3.5,Waltham,2711,,1988,,300,698,Sold,,,https://www.redfin.com/MA/Waltham/66-Bishops-Forest-Dr-02452/unit-66/home/145673084,MLS PIN,72898984,N,Y,42.4010047,-71.2297439
PAST SALE,August-13-2019,Single Family Residential,22 Dobbins St,Waltham,MA,2451,565000,2,2,Lincoln Heights,1028,7200,1930,,550,,Sold,,,https://www.redfin.com/MA/Waltham/22-Dobbins-St-02451/home/11802779,MLS PIN,72529321,N,Y,42.4013998,-71.249274
PAST SALE,June-14-2023,Single Family Residential,74 Wilbur St,Waltham,MA,2453,850000,3,2.5,Warrendale,2016,6251,1960,,422,,Sold,,,https://www.redfin.com/MA/Waltham/74-Wilbur-St-02453/home/11810486,MLS PIN,73106689,N,Y,42.3824708,-71.2023355
PAST SALE,July-27-2018,Single Family Residential,34 Smart St,Waltham,MA,2451,550000,4,1.5,Lincoln Heights,1392,4000,1966,,395,,Sold,,,https://www.redfin.com/MA/Waltham/34-Smart-St-02451/home/11804220,MLS PIN,72349833,N,Y,42.3984543,-71.2496213
PAST SALE,June-30-2020,Single Family Residential,165 Princeton Ave,Waltham,MA,2451,559500,3,1.5,Lakeview,1296,6665,1980,,432,,Sold,,,https://www.redfin.com/MA/Waltham/165-Princeton-Ave-02451/home/11802860,MLS PIN,72652130,N,Y,42.4001373,-71.2441378
PAST SALE,May-24-2023,Condo/Co-op,20 Gill Rd #4,Waltham,MA,2453,385000,1,1,Waltham,796,,1955,,484,230,Sold,,,https://www.redfin.com/MA/Waltham/20-Gill-Rd-02453/unit-4/home/16904885,MLS PIN,73090670,N,Y,42.3835332,-71.1972777
PAST SALE,August-30-2018,Single Family Residential,70 Berkley St,Waltham,MA,2451,601000,4,2.5,Waltham,1600,9359,1955,,376,,Sold,,,https://www.redfin.com/MA/Waltham/70-Berkley-St-02451/home/11799192,MLS PIN,72365066,N,Y,42.4150043,-71.2450315
PAST SALE,May-11-2023,Condo/Co-op,37 Everett St #4,Waltham,MA,2453,500000,2,1,Waltham,1040,8806,1920,,481,200,Sold,,,https://www.redfin.com/MA/Waltham/37-Everett-St-02453/unit-4/home/11821947,MLS PIN,73085060,N,Y,42.3755882,-71.2543415
PAST SALE,June-14-2023,Condo/Co-op,21 Warren St Unit B-1,Waltham,MA,2453,421000,2,1,Waltham,710,,1982,,593,421,Sold,,,https://www.redfin.com/MA/Waltham/21-Warren-St-02453/unit-B1/home/11815388,MLS PIN,73112872,N,Y,42.3751226,-71.209486
PAST SALE,March-18-2022,Single Family Residential,1758 Trapelo Rd,Waltham,MA,2451,985000,4,3.5,Waltham,3060,22651,1970,,322,,Sold,,,https://www.redfin.com/MA/Waltham/1758-Trapelo-Rd-02451/home/11798705,MLS PIN,72943887,N,Y,42.4180303,-71.2661224
PAST SALE,May-18-2021,Condo/Co-op,82 Lionel Ave Unit D,Waltham,MA,2452,390000,2,1,Waltham,780,,1979,,500,374,Sold,,,https://www.redfin.com/MA/Waltham/82-Lionel-Ave-02452/unit-D/home/11803810,MLS PIN,72806758,N,Y,42.4060106,-71.2303845
PAST SALE,June-20-2023,Condo/Co-op,84 Alder St #4,Waltham,MA,2453,775000,3,2,Waltham,1750,,1900,,443,229,Sold,,,https://www.redfin.com/MA/Waltham/84-Alder-St-02453/unit-4/home/12416924,MLS PIN,73107710,N,Y,42.3667598,-71.2338053
PAST SALE,April-16-2021,Single Family Residential,124 Hibiscus Ave,Waltham,MA,2451,585000,3,1.5,Waltham,1440,3790,1998,,406,,Sold,,,https://www.redfin.com/MA/Waltham/124-Hibiscus-Ave-02451/home/11800271,MLS PIN,72784535,N,Y,42.4079517,-71.2464973
PAST SALE,September-22-2022,Single Family Residential,21 Beal Rd,Waltham,MA,2453,770000,4,1,Warrendale,1710,5001,1930,,450,,Sold,,,https://www.redfin.com/MA/Waltham/21-Beal-Rd-02453/home/11815643,MLS PIN,73024141,N,Y,42.3760562,-71.2113858
PAST SALE,March-9-2020,Single Family Residential,1061 Trapelo Rd,Waltham,MA,2451,640000,4,2,Waltham,1600,7100,1968,,400,,Sold,,,https://www.redfin.com/MA/Waltham/1061-Trapelo-Rd-02451/home/11800536,MLS PIN,72615843,N,Y,42.4116342,-71.235383
PAST SALE,July-25-2022,Single Family Residential,3 Augustus Rd,Waltham,MA,2452,900000,4,2,East View Park,2323,10641,1956,,387,,Sold,,,https://www.redfin.com/MA/Waltham/3-Augustus-Rd-02452/home/11804090,MLS PIN,72998890,N,Y,42.4027843,-71.2197395
PAST SALE,June-1-2021,Condo/Co-op,10 Martyn St #3,Waltham,MA,2453,710000,3,2,Waltham,1802,,1900,,394,178,Sold,,,https://www.redfin.com/MA/Waltham/10-Martyn-St-02453/unit-3/home/107599235,MLS PIN,72796340,N,Y,42.3606573,-71.2457916
PAST SALE,May-31-2023,Townhouse,7 Centre St #2,Waltham,MA,2453,780000,3,2.5,Waltham,1816,,2007,,430,155,Sold,,,https://www.redfin.com/MA/Waltham/7-Centre-St-02453/unit-2/home/18960418,MLS PIN,73103334,N,Y,42.3754774,-71.2259451
PAST SALE,June-30-2022,Single Family Residential,65 Milner St,Waltham,MA,2451,596000,2,1,Lincoln Heights,1156,5502,1925,,516,,Sold,,,https://www.redfin.com/MA/Waltham/65-Milner-St-02451/home/11802767,MLS PIN,72981064,N,Y,42.4017037,-71.2483757
PAST SALE,April-21-2020,Condo/Co-op,55 Jacqueline Rd #4,Waltham,MA,2452,270000,1,1,Waltham,720,,1979,,375,343,Sold,,,https://www.redfin.com/MA/Waltham/55-Jacqueline-Rd-02452/unit-4/home/11801345,MLS PIN,72624549,N,Y,42.4074204,-71.2303027
PAST SALE,August-14-2020,Townhouse,19 Orange St #2,Waltham,MA,2453,749000,3,2.5,Waltham,2594,5227,2015,,289,,Sold,,,https://www.redfin.com/MA/Waltham/19-Orange-St-02453/unit-2/home/113075476,MLS PIN,72685328,N,Y,42.3640688,-71.2429362
PAST SALE,September-8-2022,Single Family Residential,72 Sartell Rd,Waltham,MA,2451,825000,3,1.5,Waltham,2123,5362,1940,,389,,Sold,,,https://www.redfin.com/MA/Waltham/72-Sartell-Rd-02451/home/11820986,MLS PIN,73014167,N,Y,42.3816445,-71.2514355
PAST SALE,June-19-2020,Condo/Co-op,20 Whitman Rd Unit B2,Waltham,MA,2453,360000,2,1,Waltham,705,,1982,,511,365,Sold,,,https://www.redfin.com/MA/Waltham/20-Whitman-Rd-02453/unit-B2/home/11815370,MLS PIN,72652334,N,Y,42.3747094,-71.2079283
PAST SALE,December-31-2018,Condo/Co-op,172 River St Unit A8,Waltham,MA,2453,255000,1,1,Waltham,588,,1983,,434,280,Sold,,,https://www.redfin.com/MA/Waltham/172-River-St-02453/unit-A8/home/11818137,MLS PIN,72424470,N,Y,42.3702919,-71.222598
PAST SALE,April-12-2022,Single Family Residential,29 Lyman St,Waltham,MA,2451,740000,3,3,Waltham,1910,4334,1900,,387,,Sold,,,https://www.redfin.com/MA/Waltham/29-Lyman-St-02452/home/11813325,MLS PIN,72945364,N,Y,42.3781852,-71.2303206
PAST SALE,August-7-2020,Condo/Co-op,3 Amory Rd #3,Waltham,MA,2453,420000,2,1,Waltham,865,,1940,,486,250,Sold,,,https://www.redfin.com/MA/Waltham/3-Amory-Rd-02453/unit-3/home/145307336,MLS PIN,72675900,N,Y,42.3740502,-71.2299007
PAST SALE,April-28-2022,Single Family Residential,55 Tomlin St,Waltham,MA,2451,650000,3,2,Waltham,1288,5253,1910,,505,,Sold,,,https://www.redfin.com/MA/Waltham/55-Tomlin-St-02451/home/11808384,MLS PIN,72956454,N,Y,42.3839411,-71.249208
PAST SALE,March-17-2022,Single Family Residential,35 Tomlin St,Waltham,MA,2451,750000,3,1.5,Highlands,2154,7836,1962,,348,,Sold,,,https://www.redfin.com/MA/Waltham/35-Tomlin-St-02451/home/11808378,MLS PIN,72939425,N,Y,42.3846171,-71.2492545
PAST SALE,June-30-2022,Single Family Residential,78 Mayall Rd,Waltham,MA,2453,857000,3,1.5,Warrendale,2142,5001,1932,,400,,Sold,,,https://www.redfin.com/MA/Waltham/78-Mayall-Rd-02453/home/11809897,MLS PIN,72976364,N,Y,42.3805862,-71.2122676
PAST SALE,August-10-2020,Single Family Residential,32 Waverley Oaks,Waltham,MA,2452,731250,4,2,Waltham,2388,8364,1920,,306,,Sold,,,https://www.redfin.com/MA/Waltham/32-Waverley-Oaks-Rd-02452/home/11809537,MLS PIN,72687823,N,Y,42.3813551,-71.2174655
PAST SALE,July-15-2021,Single Family Residential,12 Wilbur St,Waltham,MA,2453,1215000,3,2.5,Waltham,2921,6079,2021,,416,,Sold,,,https://www.redfin.com/MA/Waltham/12-Wilbur-St-02453/home/11809846,MLS PIN,72836506,N,Y,42.3827962,-71.2046863
PAST SALE,April-30-2019,Townhouse,22 Bishops Forest Dr #22,Waltham,MA,2452,620000,2,2.5,Waltham,2217,,1987,,280,531,Sold,,,https://www.redfin.com/MA/Waltham/22-Bishops-Forest-Dr-02452/unit-22/home/179762360,MLS PIN,72464491,N,Y,42.4024139,-71.2295401
PAST SALE,March-12-2021,Multi-Family (2-4 Unit),14-16 Dwight St,Watertown,MA,2472,846232,4,2,Watertown,2320,4672,1900,,365,,Sold,,,https://www.redfin.com/MA/Watertown/14-Dwight-St-02472/home/11690902,MLS PIN,72777400,N,Y,42.3853678,-71.1950031
PAST SALE,June-25-2019,Single Family Residential,595 Lincoln St,Waltham,MA,2451,725000,4,2,Lincoln Heights,2398,15450,1958,,302,,Sold,,,https://www.redfin.com/MA/Waltham/595-Lincoln-St-02451/home/11799820,MLS PIN,72491332,N,Y,42.4074648,-71.2515747
PAST SALE,July-31-2018,Single Family Residential,12 Bryant Rd,Waltham,MA,2451,852800,4,2.5,HIGHLANDS,3050,5000,2012,,280,,Sold,,,https://www.redfin.com/MA/Waltham/12-Bryant-Rd-02451/home/11807568,MLS PIN,72346356,N,Y,42.3834057,-71.2498535
PAST SALE,June-27-2022,Single Family Residential,14 Chatham Ln,Waltham,MA,2452,950000,4,2.5,Waltham,2589,15002,1969,,367,,Sold,,,https://www.redfin.com/MA/Waltham/14-Chatham-Ln-02452/home/11805360,MLS PIN,72981773,N,Y,42.3930708,-71.2215495
PAST SALE,April-5-2019,Single Family Residential,25 Hagar Ln,Waltham,MA,2453,600000,3,1,Warrendale,1080,7248,1940,,556,,Sold,,,https://www.redfin.com/MA/Waltham/25-Hagar-Ln-02453/home/11810162,MLS PIN,72462045,N,Y,42.3789053,-71.2040994
PAST SALE,March-1-2023,Single Family Residential,22 Sparkill St,Waltham,MA,2452,800000,3,2,Briarwood,1672,7000,1939,,478,,Sold,,,https://www.redfin.com/MA/Waltham/22-Sparkill-St-02452/home/11805457,MLS PIN,73071697,N,Y,42.3953403,-71.2035863
PAST SALE,November-30-2020,Single Family Residential,80 Rose Hill Way,Waltham,MA,2453,700000,3,1,Warrendale,1320,18818,1940,,530,,Sold,,,https://www.redfin.com/MA/Waltham/80-Rose-Hill-Way-02453/home/11809581,MLS PIN,72735867,N,Y,42.3795662,-71.2183009
PAST SALE,December-23-2021,Townhouse,17 Wadsworth Ave #2,Waltham,MA,2453,930000,3,3.5,Waltham,2700,,2016,,344,150,Sold,,,https://www.redfin.com/MA/Waltham/17-Wadsworth-Ave-02453/unit-2/home/103649961,MLS PIN,72919433,N,Y,42.3633721,-71.2379082
PAST SALE,September-4-2019,Single Family Residential,141 Worcester Ln,Waltham,MA,2451,695000,4,2,Piety Corner,2613,35000,1942,,266,,Sold,,,https://www.redfin.com/MA/Waltham/141-Worcester-Ln-02451/home/11806170,MLS PIN,72420868,N,Y,42.390579,-71.2459829
PAST SALE,December-30-2020,Single Family Residential,29 Palmer St,Waltham,MA,2451,647000,3,1.5,Waltham,1488,3345,1910,,435,,Sold,,,https://www.redfin.com/MA/Waltham/29-Palmer-St-02451/home/11811342,MLS PIN,72756581,N,Y,42.3773915,-71.2499969
PAST SALE,October-30-2018,Condo/Co-op,9 Jacqueline Unit E,Waltham,MA,2452,340000,2,1,Waltham,780,,1979,,436,371,Sold,,,https://www.redfin.com/MA/Waltham/9-Jacqueline-Rd-02452/unit-E/home/11820529,MLS PIN,72395480,N,Y,42.4067414,-71.2323809
PAST SALE,June-30-2021,Townhouse,349 Bishops Frst #349,Waltham,MA,2452,665000,2,2.5,Waltham,2251,,1989,,295,581,Sold,,,https://www.redfin.com/MA/Waltham/349-Bishops-Forest-Dr-02452/unit-349/home/179767390,MLS PIN,72809987,N,Y,42.4012186,-71.2276986
PAST SALE,May-10-2023,Single Family Residential,93 Briarwood Rd,Waltham,MA,2452,999000,3,2.5,Waltham,1968,10485,1975,,508,,Sold,,,https://www.redfin.com/MA/Waltham/93-Briarwood-Rd-02452/home/11805991,MLS PIN,73094825,N,Y,42.3941451,-71.1994119
PAST SALE,January-21-2021,Single Family Residential,58 Blossom St,Waltham,MA,2451,564000,3,2.5,Waltham,1920,6882,1974,,294,,Sold,,,https://www.redfin.com/MA/Waltham/58-Blossom-St-02451/home/11802843,MLS PIN,72756534,N,Y,42.3993995,-71.2489835
PAST SALE,December-14-2018,Condo/Co-op,20 Jacqueline Rd Unit C,Waltham,MA,2452,330100,2,1,Waltham,780,,1979,,423,372,Sold,,,https://www.redfin.com/MA/Waltham/20-Jacqueline-Rd-02452/unit-C/home/11820536,MLS PIN,72421263,N,Y,42.4070575,-71.2331811
PAST SALE,November-10-2020,Condo/Co-op,13 Dennison St #1,Waltham,MA,2453,515000,2,2,Waltham,1535,,1910,,336,300,Sold,,,https://www.redfin.com/MA/Waltham/13-Dennison-St-02453/unit-1/home/11822573,MLS PIN,72732103,N,Y,42.3608026,-71.2478623
PAST SALE,November-15-2021,Condo/Co-op,96 Lionel Ave Unit F,Waltham,MA,2451,347000,2,1,Waltham,850,,1979,,408,411,Sold,,,https://www.redfin.com/MA/Waltham/96-Lionel-Ave-02452/unit-F/home/11800883,MLS PIN,72896899,N,Y,42.4064576,-71.2298392
PAST SALE,March-31-2020,Single Family Residential,91 Stone Rd,Waltham,MA,2453,850000,4,2.5,Waltham,1791,5793,1947,,475,,Sold,,,https://www.redfin.com/MA/Waltham/91-Stone-Rd-02453/home/11815364,MLS PIN,72621137,N,Y,42.3768764,-71.2070233
PAST SALE,July-30-2019,Townhouse,10 Wall St #2,Waltham,MA,2453,650000,3,3.5,Waltham,2200,,2019,,295,200,Sold,,,https://www.redfin.com/MA/Waltham/10-Wall-St-02453/unit-2/home/167050185,MLS PIN,72514595,N,Y,42.3722797,-71.2300886
PAST SALE,January-23-2019,Condo/Co-op,62 Jacqueline Rd #3,Waltham,MA,2452,249250,1,1,Waltham,720,,1979,,346,339,Sold,,,https://www.redfin.com/MA/Waltham/62-Jacqueline-Rd-02452/unit-3/home/11801420,MLS PIN,72427422,N,Y,42.4067908,-71.2309983
PAST SALE,November-6-2020,Condo/Co-op,90 Lionel Ave Unit C,Waltham,MA,2452,395000,2,1,Waltham,850,,1979,,465,400,Sold,,,https://www.redfin.com/MA/Waltham/90-Lionel-Ave-02452/unit-C/home/11800869,MLS PIN,72731039,N,Y,42.4059995,-71.2307282
PAST SALE,November-20-2020,Townhouse,89 Overland Rd #2,Waltham,MA,2451,685500,3,2.5,Waltham,2541,,2010,,270,140,Sold,,,https://www.redfin.com/MA/Waltham/89-Overland-Rd-02451/unit-2/home/40633638,MLS PIN,72730897,N,Y,42.377049,-71.2559415
PAST SALE,June-16-2021,Single Family Residential,14 Virginia Rd,Waltham,MA,2453,750000,3,1.5,Cedarwood,2228,4583,1950,,337,,Sold,,,https://www.redfin.com/MA/Waltham/14-Virginia-Rd-02453/home/11815986,MLS PIN,72822673,N,Y,42.3709005,-71.2598789
PAST SALE,July-8-2022,Single Family Residential,34 Amherst Ave,Waltham,MA,2451,737000,3,1.5,Waltham,1740,3484,1988,,424,,Sold,,,https://www.redfin.com/MA/Waltham/34-Amherst-Ave-02451/home/11803035,MLS PIN,72973435,N,Y,42.4046734,-71.2401125
PAST SALE,June-1-2023,Single Family Residential,172 Circle Dr,Waltham,MA,2452,833000,3,2,Waltham,1204,9945,1956,,692,,Sold,,,https://www.redfin.com/MA/Waltham/172-Circle-Dr-02452/home/11804044,MLS PIN,73106632,N,Y,42.4012235,-71.2155627
PAST SALE,August-19-2022,Condo/Co-op,215 Ash #4,Waltham,MA,2451,455000,2,1,South Waltham,835,9147,1900,,545,163,Sold,,,https://www.redfin.com/MA/Waltham/215-Ash-02451/unit-4/home/181213205,MLS PIN,73010839,N,Y,42.364716,-71.233009
PAST SALE,April-29-2022,Townhouse,114 Willow St #2,Waltham,MA,2453,612500,2,1.5,Waltham,1284,,1998,,477,88,Sold,,,https://www.redfin.com/MA/Waltham/114-Willow-St-02453/unit-2/home/11437694,MLS PIN,72950578,N,Y,42.3729568,-71.2189938
PAST SALE,March-24-2023,Townhouse,25 Hardy #1,Waltham,MA,2453,1200000,4,3.5,Waltham,2904,5662,2023,,413,150,Sold,,,https://www.redfin.com/MA/Waltham/25-Hardy-St-02453/unit-1/home/184213063,MLS PIN,73078138,N,Y,42.3715628,-71.2232202
PAST SALE,May-6-2021,Single Family Residential,20 Lawndale Ave,Waltham,MA,2453,705000,3,2,Waltham,1498,6490,1927,,471,,Sold,,,https://www.redfin.com/MA/Waltham/20-Lawndale-Ave-02453/home/11814766,MLS PIN,72796447,N,Y,42.373101,-71.2136147
PAST SALE,June-15-2021,Townhouse,133 Ash St #2,Waltham,MA,2453,820000,3,3.5,Waltham,2000,,2021,,410,200,Sold,,,https://www.redfin.com/MA/Waltham/133-Ash-St-02453/unit-2/home/174916845,MLS PIN,72812601,N,Y,42.3654293,-71.2369064
PAST SALE,April-14-2022,Single Family Residential,213 Prospect Hill Rd,Waltham,MA,2451,632000,4,1.5,Highlands,1470,7701,1967,,430,,Sold,,,https://www.redfin.com/MA/Waltham/213-Prospect-Hill-Rd-02451/home/11807653,MLS PIN,72954287,N,Y,42.3818682,-71.2531989
PAST SALE,June-30-2021,Single Family Residential,49 Lakeview Ave,Waltham,MA,2451,541000,3,2,Lakeview,1123,4805,1957,,482,,Sold,,,https://www.redfin.com/MA/Waltham/49-Lakeview-Ave-02451/home/11802327,MLS PIN,72831413,N,Y,42.4029453,-71.2459133
PAST SALE,June-30-2022,Condo/Co-op,107 Clocktower Dr #3109,Waltham,MA,2451,810000,2,2,Waltham,1705,,2006,,475,599,Sold,,,https://www.redfin.com/MA/Waltham/107-Clocktower-Dr-02452/unit-3109/home/110298180,MLS PIN,72983831,N,Y,42.4087608,-71.223817
PAST SALE,August-26-2022,Townhouse,136 Bishops Forest Dr #136,Waltham,MA,2452,831000,2,3.5,Waltham,2913,,1995,,285,610,Sold,,,https://www.redfin.com/MA/Waltham/136-Bishops-Forest-Dr-02452/unit-136/home/179758863,MLS PIN,73015623,N,Y,42.3985798,-71.2291788
PAST SALE,August-24-2021,Single Family Residential,10 Cleveland Rd,Waltham,MA,2453,769000,4,2,Waltham,1606,8019,1945,,479,,Sold,,,https://www.redfin.com/MA/Waltham/10-Cleveland-Rd-02453/home/11809958,MLS PIN,72862699,N,Y,42.3793632,-71.2085548
PAST SALE,December-16-2021,Condo/Co-op,255 Winter St #111,Waltham,MA,2451,605000,2,2.5,Waltham,1314,,2009,,460,502,Sold,,,https://www.redfin.com/MA/Waltham/255-Winter-St-02451/unit-111/home/39584757,MLS PIN,72914176,N,Y,42.3990121,-71.2529845
PAST SALE,July-9-2021,Townhouse,47 Alder St #25,Waltham,MA,2453,560000,2,1.5,Waltham,1228,,2004,,456,390,Sold,,,https://www.redfin.com/MA/Waltham/47-Alder-St-02453/unit-25/home/11822522,MLS PIN,72840471,N,Y,42.3665772,-71.2353152
PAST SALE,June-25-2019,Condo/Co-op,81 Ash St #1,Waltham,MA,2453,470000,2,1,Waltham,1103,,1900,,426,268,Sold,,,https://www.redfin.com/MA/Waltham/81-Ash-St-02453/unit-1/home/40185488,MLS PIN,72501987,N,Y,42.3659035,-71.2394408
PAST SALE,April-27-2021,Single Family Residential,45 Mokema Ave,Waltham,MA,2451,480000,2,1,Waltham,954,4948,1950,,503,,Sold,,,https://www.redfin.com/MA/Waltham/45-Mokema-Ave-02451/home/11802639,MLS PIN,72796088,N,Y,42.4043232,-71.247259
PAST SALE,June-30-2021,Townhouse,136 Clark St #2,Waltham,MA,2453,810000,3,2.5,Waltham,2300,,2019,,352,200,Sold,,,https://www.redfin.com/MA/Waltham/136-Clark-St-02453/unit-2/home/174882828,MLS PIN,72834272,N,Y,42.3738982,-71.2216405
PAST SALE,November-22-2022,Condo/Co-op,28 Robbins St #4,Waltham,MA,2453,460000,2,1,Waltham,914,,1900,,503,262,Sold,,,https://www.redfin.com/MA/Waltham/28-Robbins-St-02453/unit-4/home/11821978,MLS PIN,73050370,N,Y,42.3652616,-71.2423748
PAST SALE,June-15-2022,Condo/Co-op,87 Ash St Unit 2-2,Waltham,MA,2453,555000,2,1,Waltham,955,,1900,,581,227,Sold,,,https://www.redfin.com/MA/Waltham/87-Ash-St-02453/unit-2-2/home/28675702,MLS PIN,72972163,N,Y,42.3658983,-71.2391994
PAST SALE,May-24-2019,Single Family Residential,14 Albert St,Waltham,MA,2453,580000,3,1,Waltham,1830,6000,1955,,317,,Sold,,,https://www.redfin.com/MA/Waltham/14-Albert-St-02453/home/11818715,MLS PIN,72481480,N,Y,42.3599522,-71.2645641
PAST SALE,June-30-2021,Townhouse,40 Myrtle St #2,Waltham,MA,2453,539000,2,1.5,Waltham,1156,,2002,,466,390,Sold,,,https://www.redfin.com/MA/Waltham/40-Myrtle-St-02453/unit-2/home/11822132,MLS PIN,72835682,N,Y,42.3661391,-71.2352704
PAST SALE,February-28-2022,Single Family Residential,50 Leonard St,Waltham,MA,2451,925000,5,2,Waltham,2253,6534,1910,,411,,Sold,,,https://www.redfin.com/MA/Waltham/50-Leonard-St-02451/home/11821048,MLS PIN,72937003,N,Y,42.3835676,-71.245646
PAST SALE,November-5-2020,Single Family Residential,57 Tudor St,Waltham,MA,2451,650000,3,2,Waltham,1500,9017,1950,,433,,Sold,,,https://www.redfin.com/MA/Waltham/57-Tudor-St-02451/home/11799274,MLS PIN,72734884,N,Y,42.4142857,-71.2475839
PAST SALE,July-31-2019,Condo/Co-op,30 Jacqueline Rd Unit F,Waltham,MA,2452,380000,2,1,Waltham,780,,1979,,487,364,Sold,,,https://www.redfin.com/MA/Waltham/30-Jacqueline-Rd-02452/unit-F/home/11800989,MLS PIN,72508428,N,Y,42.4073393,-71.2330587
PAST SALE,May-13-2022,Townhouse,42 Lexington St #1,Waltham,MA,2452,512500,2,1.5,Waltham,1072,,1970,,478,195,Sold,,,https://www.redfin.com/MA/Waltham/42-Lexington-St-02452/unit-1/home/52324474,MLS PIN,72964602,N,Y,42.3778049,-71.2358862
PAST SALE,May-14-2019,Townhouse,47 Alder St #21,Waltham,MA,2453,509000,2,1.5,Waltham,1248,,2005,,408,390,Sold,,,https://www.redfin.com/MA/Waltham/47-Alder-St-02453/unit-21/home/11822952,MLS PIN,72475423,N,Y,42.3665772,-71.2353152
PAST SALE,September-4-2018,Townhouse,30 Russell St #3,Waltham,MA,2453,595000,3,2,Waltham,1589,,2003,,374,200,Sold,,,https://www.redfin.com/MA/Waltham/30-Russell-St-02453/unit-3/home/11822057,MLS PIN,72365293,N,Y,42.3752613,-71.2433144
PAST SALE,June-21-2022,Townhouse,1005 Trapelo Rd #7,Waltham,MA,2452,625000,3,2.5,Waltham,1379,,2001,,453,307,Sold,,,https://www.redfin.com/MA/Waltham/1005-Trapelo-Rd-02452/unit-7/home/11821828,MLS PIN,72975917,N,Y,42.4109766,-71.232377
PAST SALE,January-11-2022,Condo/Co-op,19 Gorham St #2,Waltham,MA,2453,370000,1,1,Waltham,811,,1870,,456,217,Sold,,,https://www.redfin.com/MA/Waltham/19-Gorham-St-02453/unit-2/home/40262879,MLS PIN,72915754,N,Y,42.3698611,-71.231498
PAST SALE,June-11-2021,Single Family Residential,62 Beaver St,Waltham,MA,2453,747000,3,2,Waltham,2117,8786,1984,,353,,Sold,,,https://www.redfin.com/MA/Waltham/62-Beaver-St-02453/home/11810024,MLS PIN,72811163,N,Y,42.3817633,-71.205631
PAST SALE,June-29-2021,Condo/Co-op,41 Walnut St #21,Waltham,MA,2453,420000,2,1,Waltham,812,,1970,,517,378,Sold,,,https://www.redfin.com/MA/Waltham/41-Walnut-St-02453/unit-21/home/12301735,MLS PIN,72838014,N,Y,42.3695248,-71.2387392
PAST SALE,March-11-2022,Condo/Co-op,58 Jacqueline Rd #8,Waltham,MA,2451,425000,2,1,Waltham,910,,1961,,467,442,Sold,,,https://www.redfin.com/MA/Waltham/58-Jacqueline-Rd-02452/unit-8/home/11801412,MLS PIN,72937358,N,Y,42.406617,-71.2302884
PAST SALE,November-14-2018,Single Family Residential,31 Hatherly Rd,Waltham,MA,2452,571100,3,1,Pigeon Hill,1054,7580,1952,,542,,Sold,,,https://www.redfin.com/MA/Waltham/31-Hatherly-Rd-02452/home/11805151,MLS PIN,72404919,N,Y,42.398443,-71.218208
PAST SALE,June-11-2020,Single Family Residential,86 Indian Rd,Waltham,MA,2451,450000,3,1,Waltham,1420,3223,1910,,317,,Sold,,,https://www.redfin.com/MA/Waltham/86-Indian-Rd-02451/home/11803065,MLS PIN,72652241,N,Y,42.4036766,-71.2376987
PAST SALE,September-21-2018,Townhouse,26 Auburn St #2,Waltham,MA,2453,565000,2,2.5,Waltham,1600,,2006,,353,111,Sold,,,https://www.redfin.com/MA/Waltham/26-Auburn-St-02453/unit-2/home/12430694,MLS PIN,72364092,N,Y,42.3734403,-71.2507632
PAST SALE,October-16-2020,Single Family Residential,25 Marlborough Rd,Waltham,MA,2452,660000,3,1,Waltham,1522,3920,1920,,434,,Sold,,,https://www.redfin.com/MA/Waltham/25-Marlborough-Rd-02452/home/11805957,MLS PIN,72708409,N,Y,42.3943439,-71.2028255
PAST SALE,May-6-2020,Single Family Residential,34 Crafts St,Waltham,MA,2453,853000,4,2.5,Waltham,2504,5489,1900,,341,,Sold,,,https://www.redfin.com/MA/Waltham/34-Crafts-St-02453/home/11821679,MLS PIN,72627648,N,Y,42.3617095,-71.2347757
PAST SALE,November-14-2018,Condo/Co-op,87 Clocktower Dr #205,Waltham,MA,2452,665000,2,2,Waltham,1705,,2006,,390,598,Sold,,,https://www.redfin.com/MA/Waltham/87-Clocktower-Dr-02452/unit-205/home/12430576,MLS PIN,72407709,N,Y,42.4095722,-71.224218
PAST SALE,November-8-2021,Condo/Co-op,38 Nathan Rd #4,Waltham,MA,2451,377000,1,1,Waltham,655,,1930,,576,125,Sold,,,https://www.redfin.com/MA/Waltham/38-Nathan-Rd-02453/unit-4/home/18960325,MLS PIN,72898486,N,Y,42.3750524,-71.2551311
PAST SALE,August-16-2018,Condo/Co-op,107 Clocktower Dr #309,Waltham,MA,2452,670000,2,2,Waltham,1705,,2006,,393,598,Sold,,,https://www.redfin.com/MA/Waltham/107-Clocktower-Dr-02452/unit-309/home/18967016,MLS PIN,72335584,N,Y,42.4087608,-71.223817
PAST SALE,April-8-2020,Townhouse,21 Hall St #1,Waltham,MA,2453,764000,3,2.5,Waltham,2208,,2015,,346,200,Sold,,,https://www.redfin.com/MA/Waltham/21-Hall-St-02453/unit-1/home/56798136,MLS PIN,72615738,N,Y,42.3704892,-71.2349674
PAST SALE,January-22-2021,Condo/Co-op,10 Washington Ave #1,Waltham,MA,2453,452000,2,1,Waltham,934,,1960,,484,200,Sold,,,https://www.redfin.com/MA/Waltham/10-Washington-Ave-02453/unit-1/home/77521940,MLS PIN,72763334,N,Y,42.3630949,-71.2384651
PAST SALE,November-23-2021,Single Family Residential,41 Marivista Ave,Waltham,MA,2451,610000,3,2,Waltham,1840,2522,1973,,332,,Sold,,,https://www.redfin.com/MA/Waltham/41-Marivista-Ave-02451/home/11802947,MLS PIN,72904869,N,Y,42.401572,-71.2403914
PAST SALE,May-9-2019,Single Family Residential,17 Charles Street Ave,Waltham,MA,2453,764900,3,2.5,Waltham,2300,4550,2017,,333,,Sold,,,https://www.redfin.com/MA/Waltham/17-Charles-Street-Ave-02453/home/11812651,MLS PIN,72460883,N,Y,42.3739239,-71.2488256
PAST SALE,February-26-2020,Townhouse,28 Robbins St #3,Waltham,MA,2453,515000,3,2,Waltham,1500,,1900,,343,281,Sold,,,https://www.redfin.com/MA/Waltham/28-Robbins-St-02453/unit-3/home/11822101,MLS PIN,72608165,N,Y,42.3652616,-71.2423748
PAST SALE,June-30-2021,Condo/Co-op,31 Pond St #14,Waltham,MA,2451,300000,1,1,Waltham,567,,1981,,529,264,Sold,,,https://www.redfin.com/MA/Waltham/31-Pond-St-02451/unit-14/home/11808973,MLS PIN,72829972,N,Y,42.3798655,-71.2375182
PAST SALE,November-16-2018,Single Family Residential,121 Marivista Ave,Waltham,MA,2451,649900,3,2.5,Waltham,1872,3000,2004,,347,,Sold,,,https://www.redfin.com/MA/Waltham/121-Marivista-Ave-02451/home/11822539,MLS PIN,72393725,N,Y,42.3996311,-71.2429397
PAST SALE,February-25-2019,Townhouse,218 South St #3,Waltham,MA,2453,570000,2,2.5,Waltham,1440,,2004,,396,375,Sold,,,https://www.redfin.com/MA/Waltham/218-South-St-02453/unit-3/home/11822544,MLS PIN,72427419,N,Y,42.3684135,-71.2508909
PAST SALE,September-3-2020,Townhouse,9 Russell St #1,Waltham,MA,2453,460000,2,1.5,Waltham,982,,2004,,468,125,Sold,,,https://www.redfin.com/MA/Waltham/9-Russell-St-02453/unit-1/home/11822533,MLS PIN,72688092,N,Y,42.3755245,-71.2423514
PAST SALE,November-21-2019,Single Family Residential,30 Nutting Rd,Waltham,MA,2451,690000,4,2.5,Waltham,3269,8189,1950,,211,,Sold,,,https://www.redfin.com/MA/Waltham/30-Nutting-Rd-02451/home/11803156,MLS PIN,72574304,N,Y,42.4011109,-71.2352862
PAST SALE,February-3-2020,Townhouse,21 Hall St #2,Waltham,MA,2453,749900,3,2.5,Waltham,2208,,2015,,340,200,Sold,,,https://www.redfin.com/MA/Waltham/21-Hall-St-02453/unit-2/home/61702695,MLS PIN,72599810,N,Y,42.3704892,-71.2349674
PAST SALE,December-11-2019,Townhouse,70 Pond St #2,Waltham,MA,2451,599900,2,3,Waltham,2268,,2003,,265,200,Sold,,,https://www.redfin.com/MA/Waltham/70-Pond-St-02451/unit-2/home/11822347,MLS PIN,72586324,N,Y,42.3793253,-71.2391931
PAST SALE,July-8-2022,Townhouse,55 Ash St #23,Waltham,MA,2453,525000,2,2,Waltham,1033,,1904,,508,232,Sold,,,https://www.redfin.com/MA/Waltham/55-Ash-St-02453/unit-23/home/11822732,MLS PIN,72984866,N,Y,42.3661412,-71.2406752
PAST SALE,,Condo/Co-op,34 Winter St Unit B2,Waltham,MA,2451,660000,3,2.5,,3027,,1987,,218,,,,,https://www.redfin.com/MA/Waltham/34-Winter-St-02451/unit-B2/home/11804387,,,N,Y,42.394154,-71.2456165
PAST SALE,August-16-2022,Condo/Co-op,36 Washington Ave #4,Waltham,MA,2453,557000,2,1,Waltham,1602,,1890,,348,175,Sold,,,https://www.redfin.com/MA/Waltham/36-Washington-Ave-02453/unit-4/home/40324224,MLS PIN,73003079,N,Y,42.3628743,-71.2372382
PAST SALE,May-29-2020,Single Family Residential,752 Beaver St,Waltham,MA,2452,530000,4,1.5,Waltham,2092,12458,1950,,253,,Sold,,,https://www.redfin.com/MA/Waltham/752-Beaver-St-02452/home/11806834,MLS PIN,72591824,N,Y,42.3858147,-71.2348221
PAST SALE,November-19-2018,Condo/Co-op,29 Spruce St #24,Waltham,MA,2453,545000,2,1.5,Waltham,1129,,2009,,483,370,Sold,,,https://www.redfin.com/MA/Waltham/29-Spruce-St-02453/unit-24/home/21495359,MLS PIN,72394353,N,Y,42.3703932,-71.2383001
PAST SALE,January-4-2022,Condo/Co-op,63 Ash St #2,Waltham,MA,2453,365000,1,1,Waltham,616,,1900,,593,188,Sold,,,https://www.redfin.com/MA/Waltham/63-Ash-St-02453/unit-2/home/18960302,MLS PIN,72904845,N,Y,42.3661025,-71.2402954
PAST SALE,March-5-2021,Multi-Family (2-4 Unit),53-55 Derby St,Waltham,MA,2453,829000,6,3,Waltham,3500,5000,1910,,237,,Sold,,,https://www.redfin.com/MA/Waltham/53-Derby-St-02453/home/11819992,MLS PIN,72763360,N,Y,42.3607704,-71.2368238
PAST SALE,November-12-2020,Condo/Co-op,16 Winter St Unit 44A,Waltham,MA,2451,387500,2,2,Waltham,1092,,1981,,355,375,Sold,,,https://www.redfin.com/MA/Waltham/16-Winter-St-02451/unit-44A/home/11804430,MLS PIN,72713744,N,Y,42.3940196,-71.2445653
PAST SALE,November-30-2021,Single Family Residential,74 Boynton St,Waltham,MA,2451,625000,4,2,Waltham,1764,6325,1925,,354,,Sold,,,https://www.redfin.com/MA/Waltham/74-Boynton-St-02453/home/11821475,MLS PIN,72903063,N,Y,42.3717842,-71.253055
PAST SALE,June-9-2020,Single Family Residential,17 Humboldt St,Waltham,MA,2452,820000,3,3.5,Waltham,2448,3615,2008,,335,,Sold,,,https://www.redfin.com/MA/Waltham/17-Humboldt-St-02452/home/11805600,MLS PIN,72624116,N,Y,42.3973063,-71.2020969
PAST SALE,October-4-2021,Townhouse,9 Dix St #1,Waltham,MA,2451,565000,2,2.5,Waltham,1500,4792,2000,,377,150,Sold,,,https://www.redfin.com/MA/Waltham/9-Dix-St-02453/unit-1/home/11821706,MLS PIN,72866238,N,Y,42.3719454,-71.2204357
PAST SALE,December-8-2022,Single Family Residential,146 Trapelo Rd,Waltham,MA,2451,640000,4,1.5,Waltham,1690,3798,1920,,379,,Sold,,,https://www.redfin.com/MA/Waltham/146-Trapelo-Rd-02452/home/11806027,MLS PIN,73039690,N,Y,42.3927781,-71.2027447
PAST SALE,October-22-2018,Townhouse,79 Francis St #1,Waltham,MA,2451,549000,3,2.5,Waltham,1733,,1910,,317,250,Sold,,,https://www.redfin.com/MA/Waltham/79-Francis-St-02451/unit-1/home/40324213,MLS PIN,72379407,N,Y,42.3786922,-71.2454774
PAST SALE,April-30-2020,Townhouse,34 Winter St Unit B4,Waltham,MA,2451,645000,3,3.5,Waltham,3027,,1987,,213,400,Sold,,,https://www.redfin.com/MA/Waltham/34-Winter-St-02451/unit-B4/home/11804389,MLS PIN,72618428,N,Y,42.394154,-71.2456165
PAST SALE,September-28-2018,Single Family Residential,136 Chaffee Ave,Waltham,MA,2453,620000,3,2.5,Waltham,2094,6020,1945,,296,,Sold,,,https://www.redfin.com/MA/Waltham/136-Chaffee-Ave-02453/home/11814132,MLS PIN,72356317,N,Y,42.3780023,-71.2146979
PAST SALE,February-28-2019,Condo/Co-op,139 Robbins St #3,Waltham,MA,2453,475000,3,2,Waltham,2025,,1920,,235,200,Sold,,,https://www.redfin.com/MA/Waltham/139-Robbins-St-02453/unit-3/home/18960390,MLS PIN,72427466,N,Y,42.3638869,-71.237127
PAST SALE,August-22-2018,Single Family Residential,94 Sherbourne Pl,Waltham,MA,2451,804500,6,3.5,Reservoir Estates,3950,15582,1979,,204,,Sold,,,https://www.redfin.com/MA/Waltham/94-Sherbourne-Pl-02451/home/11798364,MLS PIN,72341174,N,Y,42.4228347,-71.2656816
PAST SALE,June-22-2023,Townhouse,11 Bellevue St #2,Waltham,MA,2453,665000,4,2.5,Waltham,2203,,1890,,302,86,Sold,,,https://www.redfin.com/MA/Waltham/11-Bellevue-St-02453/unit-2/home/40324215,MLS PIN,73097697,N,Y,42.369913,-71.2465596
PAST SALE,December-17-2020,Townhouse,98 Francis St #2,Waltham,MA,2451,532000,3,2,Waltham,1357,,2001,,392,,Sold,,,https://www.redfin.com/MA/Waltham/98-Francis-St-02451/unit-2/home/11821839,MLS PIN,72722748,N,Y,42.3798126,-71.2458363
PAST SALE,,Condo/Co-op,17 Parkers Ln #1,Waltham,MA,2453,465000,3,2,,1382,,1900,,336,,,,,https://www.redfin.com/MA/Waltham/17-Parkers-Ln-02453/unit-1/home/11822248,,,N,Y,42.3711268,-71.2218511
PAST SALE,,Condo/Co-op,47 Angleside Rd #1,Waltham,MA,2453,377500,2,1,,1165,,1980,,324,,,,,https://www.redfin.com/MA/Waltham/47-Angleside-Rd-02453/unit-1/home/11818833,,,N,Y,42.3589889,-71.2582144
PAST SALE,,Condo/Co-op,38 Eddy St #1,Waltham,MA,2453,550000,1,1,,958,,1920,,574,,,,,https://www.redfin.com/MA/Waltham/38-Eddy-St-02453/unit-1/home/12551651,,,N,Y,42.375706,-71.2538577
PAST SALE,June-3-2019,Multi-Family (2-4 Unit),66-68 Central St,Waltham,MA,2453,695000,4,2,Waltham,2298,12115,1880,,302,,Sold,,,https://www.redfin.com/MA/Waltham/66-Central-St-02453/home/181077604,MLS PIN,72466334,N,Y,42.3751831,-71.2318169
PAST SALE,,Condo/Co-op,330 Bishops Forest Dr,Waltham,MA,2452,740000,2,2,,2235,,1989,,331,,,,,https://www.redfin.com/MA/Waltham/330-Bishops-Forest-Dr-02452/home/11804850,,,N,Y,42.3983583,-71.22455
PAST SALE,,Condo/Co-op,136 Bishops Forest Dr #000136,Waltham,MA,2452,831000,2,2.5,,2913,,1995,,285,,,,,https://www.redfin.com/MA/Waltham/136-Bishops-Forest-Dr-02452/unit-000136/home/11804982,,,N,Y,42.3985798,-71.2291788
PAST SALE,,Condo/Co-op,215 Ash St #4,Waltham,MA,2453,455000,2,1,,835,,1900,,545,,,,,https://www.redfin.com/MA/Waltham/215-Ash-St-02453/unit-4/home/11823131,,,N,Y,42.3647152,-71.2330012
PAST SALE,October-5-2020,Condo/Co-op,243 Lake St #23,Waltham,MA,2451,250000,1,1,Lakeview,450,3000,1970,,556,295,Sold,,,https://www.redfin.com/MA/Waltham/243-Lake-St-02451/unit-23/home/11822962,MLS PIN,72726291,N,Y,42.4046487,-71.244863
PAST SALE,August-11-2022,Multi-Family (2-4 Unit),24-26 Taylor St,Waltham,MA,2453,845580,6,4.5,Waltham,3087,5001,1870,,274,,Sold,,,https://www.redfin.com/MA/Waltham/24-Taylor-St-02453/home/11817085,MLS PIN,73012087,N,Y,42.370136,-71.2359033
PAST SALE,,Condo/Co-op,14 Gardner St #2,Waltham,MA,2453,550000,4,2,,1599,,1900,,344,,,,,https://www.redfin.com/MA/Waltham/14-Gardner-St-02453/unit-2/home/18967014,,,N,Y,42.3702105,-71.2322743
PAST SALE,,Condo/Co-op,74 School St #1,Waltham,MA,2452,377500,1,1,,780,,1985,,484,,,,,https://www.redfin.com/MA/Waltham/74-School-St-02452/unit-1/home/11438190,,,N,Y,42.3777607,-71.2343064
